{"type":"FeatureCollection","meta":{"hazard":"bacteria","exceedance_threshold_mpn":104,"note":"Monitoring stations with a known location. Marker size = number of lab samples; color = observed AB411 exceedance rate (>104 MPN/100mL); hatched/low = fewer than 30 samples (thin support). This is observation coverage, not a model prediction surface.","stations":822},"features":[{"type":"Feature","geometry":{"type":"Point","coordinates":[-122.49127,37.78813]},"properties":{"station_id":"f197c1bc0a4cab47a0e153dcacd613bf","name":"China Beach","county":"San Francisco","n_obs":2337,"base_rate":0.0689,"low_support":false,"hazard":"bacteria"}},{"type":"Feature","geometry":{"type":"Point","coordinates":[-120.64408,35.13819]},"properties":{"station_id":"c8b815ff689600a83ce04cef23bc1c59","name":"Pismo State Beach","county":"San Luis Obispo","n_obs":2244,"base_rate":0.2135,"low_support":false,"hazard":"bacteria"}},{"type":"Feature","geometry":{"type":"Point","coordinates":[-120.11897,34.47017]},"properties":{"station_id":"dfc62d5450dc1aca4fa5309883f95028","name":"Arroyo Quemado","county":"Santa Barbara","n_obs":207,"base_rate":0.3237,"low_support":false,"hazard":"bacteria"}},{"type":"Feature","geometry":{"type":"Point","coordinates":[-119.85428,34.40808]},"properties":{"station_id":"261ae4f7215855123af1925cd413f24a","name":"Isla Vista Beach","county":"Santa Barbara","n_obs":6,"base_rate":0.1667,"low_support":true,"hazard":"bacteria"}},{"type":"Feature","geometry":{"type":"Point","coordinates":[-122.02334,36.96147]},"properties":{"station_id":"f8e426ff5582af2d4023ffbaeff37bf1","name":"Cowell Beach","county":"Santa Cruz","n_obs":806,"base_rate":0.3027,"low_support":false,"hazard":"bacteria"}},{"type":"Feature","geometry":{"type":"Point","coordinates":[-121.88888,36.95701]},"properties":{"station_id":"4dd6e934e1f143193301c4a513a292d5","name":"Hidden Beach","county":"Santa Cruz","n_obs":383,"base_rate":0.0522,"low_support":false,"hazard":"bacteria"}},{"type":"Feature","geometry":{"type":"Point","coordinates":[-123.43241,38.68346]},"properties":{"station_id":"a6045838f50849d26ca290ac2795ed06","name":"Black Point Regional Park Beach","county":"Sonoma","n_obs":1367,"base_rate":0.0059,"low_support":false,"hazard":"bacteria"}},{"type":"Feature","geometry":{"type":"Point","coordinates":[-123.05707,38.30492]},"properties":{"station_id":"f3968ab428ff7b3258ac9c3aee929613","name":"Campbell Cove State Beach","county":"Sonoma","n_obs":1495,"base_rate":0.1037,"low_support":false,"hazard":"bacteria"}},{"type":"Feature","geometry":{"type":"Point","coordinates":[-119.23029,34.16328]},"properties":{"station_id":"2a4664f91fa77a1fd879e354867b2877","name":"Hollywood Beach","county":"Ventura","n_obs":1938,"base_rate":0.0521,"low_support":false,"hazard":"bacteria"}},{"type":"Feature","geometry":{"type":"Point","coordinates":[-119.26684,34.23971]},"properties":{"station_id":"691cb1e43c24d621db53fc962ba0b855","name":"Surfers Knoll Beach","county":"Ventura","n_obs":2275,"base_rate":0.1077,"low_support":false,"hazard":"bacteria"}},{"type":"Feature","geometry":{"type":"Point","coordinates":[-124.14884,41.06164]},"properties":{"station_id":"2a30207c94b6c3079a1386a9ae4eed2e","name":"Trinidad State Beach","county":"Humboldt","n_obs":2076,"base_rate":0.2495,"low_support":false,"hazard":"bacteria"}},{"type":"Feature","geometry":{"type":"Point","coordinates":[-118.12993,33.75012]},"properties":{"station_id":"6c9196f55506988800ab76becc457f61","name":"Long Beach","county":"Long Beach City","n_obs":2835,"base_rate":0.2254,"low_support":false,"hazard":"bacteria"}},{"type":"Feature","geometry":{"type":"Point","coordinates":[-118.324,33.3426]},"properties":{"station_id":"34ac8235bd51ef27cf2114fe8b0643b4","name":"Avalon Beach","county":"Los Angeles","n_obs":1161,"base_rate":0.1628,"low_support":false,"hazard":"bacteria"}},{"type":"Feature","geometry":{"type":"Point","coordinates":[-118.6364,34.0362]},"properties":{"station_id":"90c8ef69e2fe017e54c4bb74c15310cf","name":"La Costa Beach","county":"Los Angeles","n_obs":964,"base_rate":0.1898,"low_support":false,"hazard":"bacteria"}},{"type":"Feature","geometry":{"type":"Point","coordinates":[-118.45772,33.97989]},"properties":{"station_id":"29296d81f97f4fa6153085e7d5319794","name":"Marina Del Rey Beach - Mothers Beach","county":"Los Angeles","n_obs":6153,"base_rate":0.5358,"low_support":false,"hazard":"bacteria"}},{"type":"Feature","geometry":{"type":"Point","coordinates":[-118.7897,34.0171]},"properties":{"station_id":"af981db89d41f3d94a12218ed78683e1","name":"Paradise Cove","county":"Los Angeles","n_obs":1088,"base_rate":0.25,"low_support":false,"hazard":"bacteria"}},{"type":"Feature","geometry":{"type":"Point","coordinates":[-118.7111,34.0306]},"properties":{"station_id":"f8149fbc0d2ed4bb0dc4ae35e6addcfa","name":"Puerco Beach","county":"Los Angeles","n_obs":1240,"base_rate":0.3565,"low_support":false,"hazard":"bacteria"}},{"type":"Feature","geometry":{"type":"Point","coordinates":[-118.55052,34.03934]},"properties":{"station_id":"3770bd8ea17ac898698061af5907dc77","name":"Will Rogers State Beach","county":"Los Angeles","n_obs":1251,"base_rate":0.0959,"low_support":false,"hazard":"bacteria"}},{"type":"Feature","geometry":{"type":"Point","coordinates":[-118.54452,34.03846]},"properties":{"station_id":"3df7f158362b8e4b7c5adcae6a05268c","name":"Will Rogers State Beach","county":"Los Angeles","n_obs":2247,"base_rate":0.2123,"low_support":false,"hazard":"bacteria"}},{"type":"Feature","geometry":{"type":"Point","coordinates":[-122.9218,38.19966]},"properties":{"station_id":"de30e34288da34c5a1b12bb0caa38519","name":"Miller Park","county":"Marin","n_obs":1371,"base_rate":0.1123,"low_support":false,"hazard":"bacteria"}},{"type":"Feature","geometry":{"type":"Point","coordinates":[-121.85452,36.61535]},"properties":{"station_id":"c930f4f16e1acff21566ccfd3145cb3f","name":"Seaside Beach","county":"Monterey","n_obs":352,"base_rate":0.0426,"low_support":false,"hazard":"bacteria"}},{"type":"Feature","geometry":{"type":"Point","coordinates":[-117.74966,33.50627]},"properties":{"station_id":"d32213b5d62499e378800f16f4f6d292","name":"Aliso County Beach","county":"Orange","n_obs":3251,"base_rate":0.0471,"low_support":false,"hazard":"bacteria"}},{"type":"Feature","geometry":{"type":"Point","coordinates":[-117.82184,33.56052]},"properties":{"station_id":"f5c63cf200441d7988aa497d590db3b8","name":"Crystal Cove State Park","county":"Orange","n_obs":393,"base_rate":0.0127,"low_support":false,"hazard":"bacteria"}},{"type":"Feature","geometry":{"type":"Point","coordinates":[-117.84062,33.57601]},"properties":{"station_id":"f7f083d5243ad131ad6f6fe87cf9d94f","name":"Crystal Cove State Park","county":"Orange","n_obs":865,"base_rate":0.0775,"low_support":false,"hazard":"bacteria"}},{"type":"Feature","geometry":{"type":"Point","coordinates":[-117.6741,33.4603]},"properties":{"station_id":"3fb907aa81ee3b1cf8ecac022a4f1dbf","name":"Doheny State Beach","county":"Orange","n_obs":1643,"base_rate":0.0743,"low_support":false,"hazard":"bacteria"}},{"type":"Feature","geometry":{"type":"Point","coordinates":[-117.67721,33.45988]},"properties":{"station_id":"19ff2bdf80f5213f90da9da375b09af0","name":"Doheny State Beach","county":"Orange","n_obs":2726,"base_rate":0.1423,"low_support":false,"hazard":"bacteria"}},{"type":"Feature","geometry":{"type":"Point","coordinates":[-117.68406,33.46174]},"properties":{"station_id":"da14f541515106cae9e8e3120f482b07","name":"Doheny State Beach","county":"Orange","n_obs":1894,"base_rate":0.3115,"low_support":false,"hazard":"bacteria"}},{"type":"Feature","geometry":{"type":"Point","coordinates":[-118.0692,33.71717]},"properties":{"station_id":"5a832f28427fa48cb0ca2904544d4714","name":"Huntington Harbour","county":"Orange","n_obs":1944,"base_rate":0.0895,"low_support":false,"hazard":"bacteria"}},{"type":"Feature","geometry":{"type":"Point","coordinates":[-118.07146,33.72638]},"properties":{"station_id":"07109b579a167194301cde6d5e6d5ffc","name":"Huntington Harbour","county":"Orange","n_obs":2080,"base_rate":0.1663,"low_support":false,"hazard":"bacteria"}},{"type":"Feature","geometry":{"type":"Point","coordinates":[-117.79458,33.54475]},"properties":{"station_id":"e2c96090240cd62fd06d0d10e5c8dbb3","name":"Laguna Beach","county":"Orange","n_obs":1570,"base_rate":0.0376,"low_support":false,"hazard":"bacteria"}},{"type":"Feature","geometry":{"type":"Point","coordinates":[-117.86833,33.59]},"properties":{"station_id":"0478e4b8ec40dcf20f81afca6261082c","name":"Newport Beach","county":"Orange","n_obs":2310,"base_rate":0.1766,"low_support":false,"hazard":"bacteria"}},{"type":"Feature","geometry":{"type":"Point","coordinates":[-117.6452,33.44103]},"properties":{"station_id":"82b6a5eb9211a8307c153adad4c89fd5","name":"Poche County Beach","county":"Orange","n_obs":1463,"base_rate":0.1176,"low_support":false,"hazard":"bacteria"}},{"type":"Feature","geometry":{"type":"Point","coordinates":[-117.6203,33.41944]},"properties":{"station_id":"75aad2d6d40d60ecc4aa967425de8abd","name":"San Clemente City Beach","county":"Orange","n_obs":1710,"base_rate":0.2942,"low_support":false,"hazard":"bacteria"}},{"type":"Feature","geometry":{"type":"Point","coordinates":[-117.1241,32.52105]},"properties":{"station_id":"be036475ecbb00b8ec4d8887c79acdf3","name":"Baja California, MEXICO","county":"San Diego","n_obs":3089,"base_rate":0.2464,"low_support":false,"hazard":"bacteria"}},{"type":"Feature","geometry":{"type":"Point","coordinates":[-117.3696,33.1765]},"properties":{"station_id":"426a47c339903a2b2d0b6f44e444b09f","name":"Buccaneer Beach","county":"San Diego","n_obs":2511,"base_rate":0.2358,"low_support":false,"hazard":"bacteria"}},{"type":"Feature","geometry":{"type":"Point","coordinates":[-117.17276,32.70021]},"properties":{"station_id":"0c03db966c9d87f13b348f1a4be02586","name":"Coronado north beach","county":"San Diego","n_obs":27,"base_rate":0.5185,"low_support":true,"hazard":"bacteria"}},{"type":"Feature","geometry":{"type":"Point","coordinates":[-117.30962,33.0757]},"properties":{"station_id":"2d01e89c09797aa62019c25f5380c4f6","name":"Leucadia","county":"San Diego","n_obs":53,"base_rate":0.0943,"low_support":false,"hazard":"bacteria"}},{"type":"Feature","geometry":{"type":"Point","coordinates":[-117.2098,32.7713]},"properties":{"station_id":"43a377ab051acf95b7b6ce7b514e4076","name":"Mission Bay","county":"San Diego","n_obs":1479,"base_rate":0.1271,"low_support":false,"hazard":"bacteria"}},{"type":"Feature","geometry":{"type":"Point","coordinates":[-117.2096,32.7884]},"properties":{"station_id":"33794d8b5daee01647153cbb6597a186","name":"Mission Bay, Visitor's Center","county":"San Diego","n_obs":1314,"base_rate":0.2473,"low_support":false,"hazard":"bacteria"}},{"type":"Feature","geometry":{"type":"Point","coordinates":[-117.25301,32.75391]},"properties":{"station_id":"6c1b75dabcca237d54f5c209e456d3a0","name":"Ocean Beach","county":"San Diego","n_obs":4041,"base_rate":0.1012,"low_support":false,"hazard":"bacteria"}},{"type":"Feature","geometry":{"type":"Point","coordinates":[-117.35999,33.16561]},"properties":{"station_id":"eca2835042e3d513bef2a1f423db138d","name":"Oceanside municipal beach, other","county":"San Diego","n_obs":3288,"base_rate":0.0456,"low_support":false,"hazard":"bacteria"}},{"type":"Feature","geometry":{"type":"Point","coordinates":[-117.25661,32.79451]},"properties":{"station_id":"c13b73f0922588fe99a8be1744dd1ee3","name":"Pacific Beach","county":"San Diego","n_obs":1736,"base_rate":0.0945,"low_support":false,"hazard":"bacteria"}},{"type":"Feature","geometry":{"type":"Point","coordinates":[-117.32158,33.10631]},"properties":{"station_id":"e411a6c553290ced4eececdb898f79be","name":"South Carlsbad State Beach","county":"San Diego","n_obs":3163,"base_rate":0.007,"low_support":false,"hazard":"bacteria"}},{"type":"Feature","geometry":{"type":"Point","coordinates":[-117.2488,32.68048]},"properties":{"station_id":"8b307ec3ec42039fc624b93209821aff","name":"non-accessible or restricted access shoreline on Pt. Loma","county":"San Diego","n_obs":3497,"base_rate":0.0583,"low_support":false,"hazard":"bacteria"}},{"type":"Feature","geometry":{"type":"Point","coordinates":[-122.42264,37.80736]},"properties":{"station_id":"de7a24c98905d1df82f2e5694ac21da9","name":"Aquatic Park","county":"San Francisco","n_obs":2659,"base_rate":0.2497,"low_support":false,"hazard":"bacteria"}},{"type":"Feature","geometry":{"type":"Point","coordinates":[-122.46859,37.80702]},"properties":{"station_id":"93e0fc05e7d0318b3649ba1509a91728","name":"Crissy Field","county":"San Francisco","n_obs":2526,"base_rate":0.1552,"low_support":false,"hazard":"bacteria"}},{"type":"Feature","geometry":{"type":"Point","coordinates":[-120.88169,35.29028]},"properties":{"station_id":"81f6d8aeb7f615cb4240cff5dbfe183c","name":"Montana De Oro","county":"San Luis Obispo","n_obs":707,"base_rate":0.0339,"low_support":false,"hazard":"bacteria"}},{"type":"Feature","geometry":{"type":"Point","coordinates":[-120.86451,35.37618]},"properties":{"station_id":"3e4431f81539f00cb08e4ff008c238d2","name":"Morro Bay City Beach","county":"San Luis Obispo","n_obs":2112,"base_rate":0.1051,"low_support":false,"hazard":"bacteria"}},{"type":"Feature","geometry":{"type":"Point","coordinates":[-122.2858,37.5497]},"properties":{"station_id":"87bb412067f4d6f63bd057a6fad3d542","name":"Lakeshore Park","county":"San Mateo","n_obs":2051,"base_rate":0.6051,"low_support":false,"hazard":"bacteria"}},{"type":"Feature","geometry":{"type":"Point","coordinates":[-122.50471,37.59759]},"properties":{"station_id":"f72874d15e07cd2493b43a5fe3872479","name":"Pacifica State Beach","county":"San Mateo","n_obs":702,"base_rate":0.2208,"low_support":false,"hazard":"bacteria"}},{"type":"Feature","geometry":{"type":"Point","coordinates":[-122.40404,37.32243]},"properties":{"station_id":"b6737587d5d27a1300c36be53533e5f1","name":"San Gregorio State Beach","county":"San Mateo","n_obs":1504,"base_rate":0.1649,"low_support":false,"hazard":"bacteria"}},{"type":"Feature","geometry":{"type":"Point","coordinates":[-119.82721,34.42087]},"properties":{"station_id":"d373fca21ef9b5928d923242f901eea8","name":"Goleta Beach","county":"Santa Barbara","n_obs":2446,"base_rate":0.3401,"low_support":false,"hazard":"bacteria"}},{"type":"Feature","geometry":{"type":"Point","coordinates":[-119.63432,34.41687]},"properties":{"station_id":"4476ee3d243cb011c5ac0be04938f57b","name":"Hammonds","county":"Santa Barbara","n_obs":2274,"base_rate":0.1464,"low_support":false,"hazard":"bacteria"}},{"type":"Feature","geometry":{"type":"Point","coordinates":[-122.02317,36.96195]},"properties":{"station_id":"68889614d88574ec3c53af25992360b6","name":"Cowell Beach","county":"Santa Cruz","n_obs":3732,"base_rate":0.5105,"low_support":false,"hazard":"bacteria"}},{"type":"Feature","geometry":{"type":"Point","coordinates":[-121.86303,36.93184]},"properties":{"station_id":"8c6b6ae36c261505f2dd74d3f1de9425","name":"Manresa State Beach","county":"Santa Cruz","n_obs":381,"base_rate":0.0236,"low_support":false,"hazard":"bacteria"}},{"type":"Feature","geometry":{"type":"Point","coordinates":[-121.90678,36.96884]},"properties":{"station_id":"bf9c189f12651050df475f2f1ce99dbe","name":"Rio del Mar Beach","county":"Santa Cruz","n_obs":1756,"base_rate":0.2187,"low_support":false,"hazard":"bacteria"}},{"type":"Feature","geometry":{"type":"Point","coordinates":[-121.98941,36.96041]},"properties":{"station_id":"614e7abd8103314c66494c4b3e5e58d5","name":"Sunny Cove Beach","county":"Santa Cruz","n_obs":454,"base_rate":0.0947,"low_support":false,"hazard":"bacteria"}},{"type":"Feature","geometry":{"type":"Point","coordinates":[-123.04322,38.3134]},"properties":{"station_id":"af4d8f48350905bfc7d97d86d997c011","name":"Doran Regional Park Beach","county":"Sonoma","n_obs":1352,"base_rate":0.0155,"low_support":false,"hazard":"bacteria"}},{"type":"Feature","geometry":{"type":"Point","coordinates":[-123.06854,38.35631]},"properties":{"station_id":"6b37c4188378408ee1226cca29daf885","name":"Salmon Creek State Park Beach","county":"Sonoma","n_obs":1404,"base_rate":0.0078,"low_support":false,"hazard":"bacteria"}},{"type":"Feature","geometry":{"type":"Point","coordinates":[-119.39175,34.31897]},"properties":{"station_id":"32133b04fa96b6956d87c7afc4c40efc","name":"Faria County Park Beach","county":"Ventura","n_obs":2245,"base_rate":0.1024,"low_support":false,"hazard":"bacteria"}},{"type":"Feature","geometry":{"type":"Point","coordinates":[-119.06533,34.0878]},"properties":{"station_id":"1781136acf777ec19dccb9967f99e00a","name":"Point Mugu Beach","county":"Ventura","n_obs":1187,"base_rate":0.032,"low_support":false,"hazard":"bacteria"}},{"type":"Feature","geometry":{"type":"Point","coordinates":[-117.95968,33.62929]},"properties":{"station_id":"5956788893c03f1aed6bbd690609caa2","name":"Huntington State Beach","county":"Orange","n_obs":5409,"base_rate":0.103,"low_support":false,"hazard":"bacteria"}},{"type":"Feature","geometry":{"type":"Point","coordinates":[-122.27762,37.76816]},"properties":{"station_id":"e472a33af278301fb72602ae7b4a4fda","name":"Crown Beach (Alameda Co)","county":"East Bay Parks District","n_obs":1835,"base_rate":0.4136,"low_support":false,"hazard":"bacteria"}},{"type":"Feature","geometry":{"type":"Point","coordinates":[-118.32862,33.35122]},"properties":{"station_id":"a0fa9ea291c8ea49b0e965e2382992e4","name":"Avalon Beach","county":"Los Angeles","n_obs":205,"base_rate":0.0488,"low_support":false,"hazard":"bacteria"}},{"type":"Feature","geometry":{"type":"Point","coordinates":[-118.6731,34.0383]},"properties":{"station_id":"4fec85bf849a435f9f1c1627d8cfe306","name":"Carbon Beach","county":"Los Angeles","n_obs":1098,"base_rate":0.2641,"low_support":false,"hazard":"bacteria"}},{"type":"Feature","geometry":{"type":"Point","coordinates":[-118.8929,34.039]},"properties":{"station_id":"57ad7c6e96c2a579a1d896be8448c767","name":"El Pescador State Beach","county":"Los Angeles","n_obs":9,"base_rate":0.1111,"low_support":true,"hazard":"bacteria"}},{"type":"Feature","geometry":{"type":"Point","coordinates":[-122.96148,38.02728]},"properties":{"station_id":"5acce46e53fca865cb68f869addc22eb","name":"Drake's Beach","county":"Marin","n_obs":537,"base_rate":0.0726,"low_support":false,"hazard":"bacteria"}},{"type":"Feature","geometry":{"type":"Point","coordinates":[-122.64295,37.89717]},"properties":{"station_id":"a36617a29febc5142cf14091913db935","name":"Stinson Beach","county":"Marin","n_obs":1269,"base_rate":0.0575,"low_support":false,"hazard":"bacteria"}},{"type":"Feature","geometry":{"type":"Point","coordinates":[-122.81778,38.06311]},"properties":{"station_id":"bc6f06c7c089899c4dd0dbf30e010520","name":"Whitehouse Pool","county":"Marin","n_obs":483,"base_rate":0.6398,"low_support":false,"hazard":"bacteria"}},{"type":"Feature","geometry":{"type":"Point","coordinates":[-121.93,36.63]},"properties":{"station_id":"27600ae205b5c53f26f501707a94bd04","name":"Asilomar State Beach","county":"Monterey","n_obs":1531,"base_rate":0.0327,"low_support":false,"hazard":"bacteria"}},{"type":"Feature","geometry":{"type":"Point","coordinates":[-117.75281,33.51045]},"properties":{"station_id":"1c40ca689fe7f0c603e7a98293e666d3","name":"Aliso County Beach","county":"Orange","n_obs":693,"base_rate":0.2107,"low_support":false,"hazard":"bacteria"}},{"type":"Feature","geometry":{"type":"Point","coordinates":[-117.66827,33.4545]},"properties":{"station_id":"4dc55f13a422d460a888b10f4f857001","name":"Capistrano Beach","county":"Orange","n_obs":2477,"base_rate":0.0581,"low_support":false,"hazard":"bacteria"}},{"type":"Feature","geometry":{"type":"Point","coordinates":[-117.87633,33.58366]},"properties":{"station_id":"22ef0cd1af966e64cef3b04df1d00b92","name":"Crystal Cove State Park","county":"Orange","n_obs":45,"base_rate":0.0,"low_support":false,"hazard":"bacteria"}},{"type":"Feature","geometry":{"type":"Point","coordinates":[-117.7045,33.46233]},"properties":{"station_id":"8ab7f462072e198d83a47bc3f5247ec3","name":"Dana Point Harbor","county":"Orange","n_obs":2175,"base_rate":0.1761,"low_support":false,"hazard":"bacteria"}},{"type":"Feature","geometry":{"type":"Point","coordinates":[-117.68937,33.46219]},"properties":{"station_id":"7d4c46004f64059db28871e52648c2e0","name":"Dana Point Harbor","county":"Orange","n_obs":849,"base_rate":0.3616,"low_support":false,"hazard":"bacteria"}},{"type":"Feature","geometry":{"type":"Point","coordinates":[-117.70374,33.46209]},"properties":{"station_id":"552c4329fcbd336fdc1be5de6924dac8","name":"Dana Point Harbor","county":"Orange","n_obs":2007,"base_rate":0.0463,"low_support":false,"hazard":"bacteria"}},{"type":"Feature","geometry":{"type":"Point","coordinates":[-117.67056,33.45619]},"properties":{"station_id":"f838e700a47a44a6ba58c2608a52c2f0","name":"Doheny State Beach","county":"Orange","n_obs":1630,"base_rate":0.0503,"low_support":false,"hazard":"bacteria"}},{"type":"Feature","geometry":{"type":"Point","coordinates":[-117.99086,33.64768]},"properties":{"station_id":"d49c8be2a3fba82304610198cd496539","name":"Huntington City Beach","county":"Orange","n_obs":3342,"base_rate":0.0679,"low_support":false,"hazard":"bacteria"}},{"type":"Feature","geometry":{"type":"Point","coordinates":[-118.046,33.69583]},"properties":{"station_id":"ea9d479d980dec217181e3ce6acaa59f","name":"Huntington Harbour","county":"Orange","n_obs":12,"base_rate":0.25,"low_support":true,"hazard":"bacteria"}},{"type":"Feature","geometry":{"type":"Point","coordinates":[-117.77347,33.52965]},"properties":{"station_id":"e09ea7a79227275dfdf8ec49c4c8aee0","name":"Laguna Beach","county":"Orange","n_obs":687,"base_rate":0.1063,"low_support":false,"hazard":"bacteria"}},{"type":"Feature","geometry":{"type":"Point","coordinates":[-117.76302,33.51919]},"properties":{"station_id":"524c862283169a39127f2cee97bfb654","name":"Laguna Beach","county":"Orange","n_obs":1550,"base_rate":0.0226,"low_support":false,"hazard":"bacteria"}},{"type":"Feature","geometry":{"type":"Point","coordinates":[-117.7479,33.50438]},"properties":{"station_id":"e99e05ab799ce0ed4f6fd2023e56666b","name":"Laguna Beach","county":"Orange","n_obs":1625,"base_rate":0.0314,"low_support":false,"hazard":"bacteria"}},{"type":"Feature","geometry":{"type":"Point","coordinates":[-117.89471,33.60833]},"properties":{"station_id":"9e370d8f1fb353e06a5ab559b2551df7","name":"Newport Bay","county":"Orange","n_obs":2289,"base_rate":0.1022,"low_support":false,"hazard":"bacteria"}},{"type":"Feature","geometry":{"type":"Point","coordinates":[-117.62353,33.42279]},"properties":{"station_id":"01e1a5e081dd9566833b44d522769187","name":"San Clemente City Beach","county":"Orange","n_obs":1451,"base_rate":0.0531,"low_support":false,"hazard":"bacteria"}},{"type":"Feature","geometry":{"type":"Point","coordinates":[-117.61801,33.416]},"properties":{"station_id":"bc733456c3b8e56076d73ac5177d6732","name":"San Clemente City Beach","county":"Orange","n_obs":60,"base_rate":0.15,"low_support":false,"hazard":"bacteria"}},{"type":"Feature","geometry":{"type":"Point","coordinates":[-118.10626,33.73779]},"properties":{"station_id":"0f27fead4c3e270da2cd1b7051d01d66","name":"Seal Beach Surfside","county":"Orange","n_obs":2439,"base_rate":0.2288,"low_support":false,"hazard":"bacteria"}},{"type":"Feature","geometry":{"type":"Point","coordinates":[-117.1243,32.53595]},"properties":{"station_id":"4d15cb7e62cd079691f8a063851fa245","name":"Border Field State Park","county":"San Diego","n_obs":4501,"base_rate":0.3193,"low_support":false,"hazard":"bacteria"}},{"type":"Feature","geometry":{"type":"Point","coordinates":[-117.13622,32.62813]},"properties":{"station_id":"ae81383d217bf6e237dd1aaae9a76ba1","name":"Coronado Cays (NR)","county":"San Diego","n_obs":1,"base_rate":1.0,"low_support":true,"hazard":"bacteria"}},{"type":"Feature","geometry":{"type":"Point","coordinates":[-117.25526,32.86585]},"properties":{"station_id":"89ac2cd4818eb7f46d0f591e6f32d6f6","name":"La Jolla Shores Beach","county":"San Diego","n_obs":245,"base_rate":0.0449,"low_support":false,"hazard":"bacteria"}},{"type":"Feature","geometry":{"type":"Point","coordinates":[-117.2732,32.8167]},"properties":{"station_id":"fb7fd6f9a54817eb5ee1163dc784ab8f","name":"La Jolla Shores Beach","county":"San Diego","n_obs":25,"base_rate":0.0,"low_support":true,"hazard":"bacteria"}},{"type":"Feature","geometry":{"type":"Point","coordinates":[-117.2213,32.79492]},"properties":{"station_id":"3606be6a9a4b8a458270553ec8fc8336","name":"Mission Bay, Campland On The Bay","county":"San Diego","n_obs":1843,"base_rate":0.2908,"low_support":false,"hazard":"bacteria"}},{"type":"Feature","geometry":{"type":"Point","coordinates":[-117.37457,33.18239]},"properties":{"station_id":"776a6f765841ec807ae147fba9c0612c","name":"Oceanside municipal beach, other","county":"San Diego","n_obs":3281,"base_rate":0.0415,"low_support":false,"hazard":"bacteria"}},{"type":"Feature","geometry":{"type":"Point","coordinates":[-117.25853,32.79926]},"properties":{"station_id":"961ee258aa655f1013537e29ff305b97","name":"Pacific Beach","county":"San Diego","n_obs":3,"base_rate":0.0,"low_support":true,"hazard":"bacteria"}},{"type":"Feature","geometry":{"type":"Point","coordinates":[-117.26873,32.9624]},"properties":{"station_id":"56ca3f2fcd01a26dfb2c705ee1eadacf","name":"Powerhouse Park 15th Street","county":"San Diego","n_obs":1,"base_rate":1.0,"low_support":true,"hazard":"bacteria"}},{"type":"Feature","geometry":{"type":"Point","coordinates":[-117.27061,32.9753]},"properties":{"station_id":"2936a776752df6afb707855ffec4bca6","name":"San Dieguito River Beach","county":"San Diego","n_obs":4383,"base_rate":0.1084,"low_support":false,"hazard":"bacteria"}},{"type":"Feature","geometry":{"type":"Point","coordinates":[-117.3194,33.10061]},"properties":{"station_id":"93db4c32f7c19690a93f53546ad505c2","name":"South Carlsbad State Beach","county":"San Diego","n_obs":3140,"base_rate":0.0045,"low_support":false,"hazard":"bacteria"}},{"type":"Feature","geometry":{"type":"Point","coordinates":[-117.27967,32.82618]},"properties":{"station_id":"2b278f07d6c338cc27d1b85c1a3f01bb","name":"WindanSea Beach","county":"San Diego","n_obs":1021,"base_rate":0.0862,"low_support":false,"hazard":"bacteria"}},{"type":"Feature","geometry":{"type":"Point","coordinates":[-122.38829,37.70971]},"properties":{"station_id":"3f7cc4df6552536a5af023a3d86166e6","name":"Candlestick Point","county":"San Francisco","n_obs":3015,"base_rate":0.4245,"low_support":false,"hazard":"bacteria"}},{"type":"Feature","geometry":{"type":"Point","coordinates":[-122.27888,37.57172]},"properties":{"station_id":"257bcadfe02dc05775840d513c29770e","name":"Kiteboard Beach","county":"San Mateo","n_obs":1605,"base_rate":0.3676,"low_support":false,"hazard":"bacteria"}},{"type":"Feature","geometry":{"type":"Point","coordinates":[-122.5153,37.54834]},"properties":{"station_id":"6c9fea9b7cdaf0e525c8b63dd8d91a04","name":"Montara State Beach","county":"San Mateo","n_obs":202,"base_rate":0.8614,"low_support":false,"hazard":"bacteria"}},{"type":"Feature","geometry":{"type":"Point","coordinates":[-119.85629,34.40828]},"properties":{"station_id":"f7eae2670644070111cf95021c289fad","name":"Isla Vista Beach","county":"Santa Barbara","n_obs":6,"base_rate":0.1667,"low_support":true,"hazard":"bacteria"}},{"type":"Feature","geometry":{"type":"Point","coordinates":[-121.95055,36.97133]},"properties":{"station_id":"4a86041c7effdb019dcc78e7403a4354","name":"Capitola City Beach","county":"Santa Cruz","n_obs":2311,"base_rate":0.4569,"low_support":false,"hazard":"bacteria"}},{"type":"Feature","geometry":{"type":"Point","coordinates":[-122.02168,36.96219]},"properties":{"station_id":"004e4934aa27cc1045d74b3752fb0f35","name":"Main Beach","county":"Santa Cruz","n_obs":806,"base_rate":0.3908,"low_support":false,"hazard":"bacteria"}},{"type":"Feature","geometry":{"type":"Point","coordinates":[-121.93855,36.97819]},"properties":{"station_id":"1b04eee0f78c499ad509c89ebbeddc95","name":"New Brighton State Beach","county":"Santa Cruz","n_obs":1625,"base_rate":0.1914,"low_support":false,"hazard":"bacteria"}},{"type":"Feature","geometry":{"type":"Point","coordinates":[-121.81088,36.85153]},"properties":{"station_id":"b9a7a7620bd25f068f4811f77180529d","name":"Pajaro Dunes Beach","county":"Santa Cruz","n_obs":335,"base_rate":0.0955,"low_support":false,"hazard":"bacteria"}},{"type":"Feature","geometry":{"type":"Point","coordinates":[-123.12528,38.44084]},"properties":{"station_id":"8348788f58919ca2b0e35ef08835b3b3","name":"Goat Rock State Park Beach","county":"Sonoma","n_obs":1362,"base_rate":0.0206,"low_support":false,"hazard":"bacteria"}},{"type":"Feature","geometry":{"type":"Point","coordinates":[-118.95997,34.05155]},"properties":{"station_id":"7d79e01c7ace6f240496a7e5d42285de","name":"County Line Beach","county":"Ventura","n_obs":1160,"base_rate":0.0276,"low_support":false,"hazard":"bacteria"}},{"type":"Feature","geometry":{"type":"Point","coordinates":[-119.22217,34.16065]},"properties":{"station_id":"4a74ad34139bc15dacec152409c3e179","name":"Kiddie Beach","county":"Ventura","n_obs":2259,"base_rate":0.2541,"low_support":false,"hazard":"bacteria"}},{"type":"Feature","geometry":{"type":"Point","coordinates":[-119.4175,34.37334]},"properties":{"station_id":"de576c5a626349ba78d923689435da8f","name":"Rincon Beach","county":"Ventura","n_obs":2276,"base_rate":0.1854,"low_support":false,"hazard":"bacteria"}},{"type":"Feature","geometry":{"type":"Point","coordinates":[-119.27153,34.2569]},"properties":{"station_id":"114907859f11794e2367f3a13f85588e","name":"San Buenaventura State Beach","county":"Ventura","n_obs":1215,"base_rate":0.0683,"low_support":false,"hazard":"bacteria"}},{"type":"Feature","geometry":{"type":"Point","coordinates":[-122.27506,37.76582]},"properties":{"station_id":"12fbf75da8cab209342f2f89159c5eab","name":"Crown Beach (Alameda Co)","county":"East Bay Parks District","n_obs":1880,"base_rate":0.2601,"low_support":false,"hazard":"bacteria"}},{"type":"Feature","geometry":{"type":"Point","coordinates":[-117.73584,33.48908]},"properties":{"station_id":"04a3b213f21998fa5accf61df82a753c","name":"Aliso County Beach","county":"Orange","n_obs":3254,"base_rate":0.0243,"low_support":false,"hazard":"bacteria"}},{"type":"Feature","geometry":{"type":"Point","coordinates":[-118.327,33.34503]},"properties":{"station_id":"d870463f4ff91580cdbbc90c6703b942","name":"Avalon Beach","county":"Los Angeles","n_obs":1310,"base_rate":0.2168,"low_support":false,"hazard":"bacteria"}},{"type":"Feature","geometry":{"type":"Point","coordinates":[-118.2831,33.71138]},"properties":{"station_id":"0c924d016215867298d14cf2c26bfe6b","name":"Inner Cabrillo Beach","county":"Los Angeles","n_obs":10979,"base_rate":0.4459,"low_support":false,"hazard":"bacteria"}},{"type":"Feature","geometry":{"type":"Point","coordinates":[-118.39081,33.81902]},"properties":{"station_id":"9029fa97c8534193983ca88f9cbd94c1","name":"Redondo Beach","county":"Los Angeles","n_obs":348,"base_rate":0.1149,"low_support":false,"hazard":"bacteria"}},{"type":"Feature","geometry":{"type":"Point","coordinates":[-118.566,34.0253]},"properties":{"station_id":"8a9d583dc0edae209638a86a4cd3bcbc","name":"Will Rogers State Beach","county":"Los Angeles","n_obs":1159,"base_rate":0.2761,"low_support":false,"hazard":"bacteria"}},{"type":"Feature","geometry":{"type":"Point","coordinates":[-122.70824,38.00497]},"properties":{"station_id":"f7fff65f4cc19a6eb55bfc36f0f625c5","name":"All_Marin_County","county":"Marin","n_obs":537,"base_rate":0.568,"low_support":false,"hazard":"bacteria"}},{"type":"Feature","geometry":{"type":"Point","coordinates":[-122.89342,38.1326]},"properties":{"station_id":"7c6f37ef6a80e33f6dbd556ffcd94273","name":"Heart's Desire","county":"Marin","n_obs":1354,"base_rate":0.1211,"low_support":false,"hazard":"bacteria"}},{"type":"Feature","geometry":{"type":"Point","coordinates":[-121.80962,36.69841]},"properties":{"station_id":"9eb70a296a773c64159ef7ee863e3707","name":"Marina State Beach","county":"Monterey","n_obs":375,"base_rate":0.0293,"low_support":false,"hazard":"bacteria"}},{"type":"Feature","geometry":{"type":"Point","coordinates":[-117.8251,33.56224]},"properties":{"station_id":"f80efd3d20787f26ecfd86f7bfb95945","name":"Crystal Cove State Park","county":"Orange","n_obs":2247,"base_rate":0.0432,"low_support":false,"hazard":"bacteria"}},{"type":"Feature","geometry":{"type":"Point","coordinates":[-117.82167,33.5605]},"properties":{"station_id":"77a460fd9f01ecb22a104a6bab5d6c4c","name":"Crystal Cove State Park","county":"Orange","n_obs":36,"base_rate":0.0556,"low_support":false,"hazard":"bacteria"}},{"type":"Feature","geometry":{"type":"Point","coordinates":[-117.67056,33.45619]},"properties":{"station_id":"943462337a8c0a33d87ece2763ba43ba","name":"Doheny State Beach","county":"Orange","n_obs":18,"base_rate":0.7222,"low_support":true,"hazard":"bacteria"}},{"type":"Feature","geometry":{"type":"Point","coordinates":[-117.6965,33.46071]},"properties":{"station_id":"cf98937ceaefb319855209509a2adda1","name":"Doheny State Beach","county":"Orange","n_obs":2692,"base_rate":0.1241,"low_support":false,"hazard":"bacteria"}},{"type":"Feature","geometry":{"type":"Point","coordinates":[-117.68397,33.46174]},"properties":{"station_id":"10dedcd78ea56316af1ae50c8b957d80","name":"Doheny State Beach","county":"Orange","n_obs":715,"base_rate":0.5315,"low_support":false,"hazard":"bacteria"}},{"type":"Feature","geometry":{"type":"Point","coordinates":[-118.07653,33.72502]},"properties":{"station_id":"1dc535129479972791e55b2204db0297","name":"Huntington Harbour","county":"Orange","n_obs":1854,"base_rate":0.1559,"low_support":false,"hazard":"bacteria"}},{"type":"Feature","geometry":{"type":"Point","coordinates":[-117.96602,33.63311]},"properties":{"station_id":"22170656df395498d4072dec52a1e506","name":"Huntington State Beach","county":"Orange","n_obs":5613,"base_rate":0.1413,"low_support":false,"hazard":"bacteria"}},{"type":"Feature","geometry":{"type":"Point","coordinates":[-117.98126,33.6417]},"properties":{"station_id":"d88037d18b7682113a310f9d12bd24f7","name":"Huntington State Beach","county":"Orange","n_obs":5431,"base_rate":0.0794,"low_support":false,"hazard":"bacteria"}},{"type":"Feature","geometry":{"type":"Point","coordinates":[-117.78056,33.5371]},"properties":{"station_id":"cf6fad8f327bf8e19880a59491da8892","name":"Laguna Beach","county":"Orange","n_obs":159,"base_rate":0.0943,"low_support":false,"hazard":"bacteria"}},{"type":"Feature","geometry":{"type":"Point","coordinates":[-117.78361,33.54087]},"properties":{"station_id":"79e0a21b80655cff3071ea9dc6d07373","name":"Laguna Beach","county":"Orange","n_obs":54,"base_rate":0.4259,"low_support":false,"hazard":"bacteria"}},{"type":"Feature","geometry":{"type":"Point","coordinates":[-117.90771,33.61279]},"properties":{"station_id":"05f4156cbfa17249f8a53c8bdcd78ddc","name":"Newport Bay","county":"Orange","n_obs":2334,"base_rate":0.1247,"low_support":false,"hazard":"bacteria"}},{"type":"Feature","geometry":{"type":"Point","coordinates":[-117.93674,33.62091]},"properties":{"station_id":"d797735259b1726cea3213c07a2b7c58","name":"Newport Bay","county":"Orange","n_obs":2355,"base_rate":0.1631,"low_support":false,"hazard":"bacteria"}},{"type":"Feature","geometry":{"type":"Point","coordinates":[-117.93104,33.61648]},"properties":{"station_id":"707bc5d34bad3e96635b3629c4a8a924","name":"Newport Bay","county":"Orange","n_obs":2415,"base_rate":0.1631,"low_support":false,"hazard":"bacteria"}},{"type":"Feature","geometry":{"type":"Point","coordinates":[-117.89333,33.6023]},"properties":{"station_id":"ee1ad55f43abcbf8b7c1fc76151aa81e","name":"Newport Bay","county":"Orange","n_obs":2298,"base_rate":0.1158,"low_support":false,"hazard":"bacteria"}},{"type":"Feature","geometry":{"type":"Point","coordinates":[-117.88872,33.60571]},"properties":{"station_id":"c527b6a42911851cb76dbb02160fbcdf","name":"Newport Bay","county":"Orange","n_obs":2028,"base_rate":0.1139,"low_support":false,"hazard":"bacteria"}},{"type":"Feature","geometry":{"type":"Point","coordinates":[-117.89045,33.6173]},"properties":{"station_id":"3fd82ceff475fdfdc7c50b482c9bc931","name":"Newport Bay","county":"Orange","n_obs":24,"base_rate":0.4167,"low_support":true,"hazard":"bacteria"}},{"type":"Feature","geometry":{"type":"Point","coordinates":[-117.95384,33.6265]},"properties":{"station_id":"2cb22d85daa99422a5c9267cee43da45","name":"Newport Beach","county":"Orange","n_obs":3409,"base_rate":0.0681,"low_support":false,"hazard":"bacteria"}},{"type":"Feature","geometry":{"type":"Point","coordinates":[-117.87533,33.59]},"properties":{"station_id":"ac9e9d1c594533b628143a52112602e3","name":"Newport Beach","county":"Orange","n_obs":9,"base_rate":0.5556,"low_support":true,"hazard":"bacteria"}},{"type":"Feature","geometry":{"type":"Point","coordinates":[-117.62335,33.42296]},"properties":{"station_id":"4972111d6ebf4ff0d82ec7b02475ed21","name":"San Clemente City Beach","county":"Orange","n_obs":84,"base_rate":0.1667,"low_support":false,"hazard":"bacteria"}},{"type":"Feature","geometry":{"type":"Point","coordinates":[-117.62533,33.42433]},"properties":{"station_id":"1da480853e54b754ebc649b03def5ef3","name":"San Clemente City Beach","county":"Orange","n_obs":3,"base_rate":1.0,"low_support":true,"hazard":"bacteria"}},{"type":"Feature","geometry":{"type":"Point","coordinates":[-117.26362,32.85056]},"properties":{"station_id":"9dfa0830aa31883ee4769f85b76dcc64","name":"La Jolla Shores Beach","county":"San Diego","n_obs":1,"base_rate":1.0,"low_support":true,"hazard":"bacteria"}},{"type":"Feature","geometry":{"type":"Point","coordinates":[-117.21793,32.78816]},"properties":{"station_id":"2c5214bdcf8aeddcffb5beaff180cef0","name":"Mission Bay","county":"San Diego","n_obs":487,"base_rate":0.384,"low_support":false,"hazard":"bacteria"}},{"type":"Feature","geometry":{"type":"Point","coordinates":[-117.299,33.0485]},"properties":{"station_id":"5f12b55a31159e0e75e52c633311ec27","name":"Moonlight Beach","county":"San Diego","n_obs":52,"base_rate":0.1154,"low_support":false,"hazard":"bacteria"}},{"type":"Feature","geometry":{"type":"Point","coordinates":[-117.10188,32.65096]},"properties":{"station_id":"d0d906fe9451e2542f7c0c2a187cdc9e","name":"San Diego Bay","county":"San Diego","n_obs":21,"base_rate":0.9524,"low_support":true,"hazard":"bacteria"}},{"type":"Feature","geometry":{"type":"Point","coordinates":[-117.33381,33.1285]},"properties":{"station_id":"700ef33319046b71e5c2a0c1cd0ac661","name":"South Carlsbad State Beach","county":"San Diego","n_obs":3170,"base_rate":0.0079,"low_support":false,"hazard":"bacteria"}},{"type":"Feature","geometry":{"type":"Point","coordinates":[-117.28064,32.82935]},"properties":{"station_id":"290041a262e357a4932d9a35f341019f","name":"WindanSea Beach","county":"San Diego","n_obs":2636,"base_rate":0.0376,"low_support":false,"hazard":"bacteria"}},{"type":"Feature","geometry":{"type":"Point","coordinates":[-117.26069,32.69336]},"properties":{"station_id":"081e51fd69b6aaa4dd39b29ac13f6452","name":"non-accessible or restricted access shoreline on Pt. Loma","county":"San Diego","n_obs":3,"base_rate":0.0,"low_support":true,"hazard":"bacteria"}},{"type":"Feature","geometry":{"type":"Point","coordinates":[-122.45413,37.80648]},"properties":{"station_id":"406f929550fdade8506388459c9ef37b","name":"Crissy Field","county":"San Francisco","n_obs":21,"base_rate":0.7143,"low_support":true,"hazard":"bacteria"}},{"type":"Feature","geometry":{"type":"Point","coordinates":[-120.64266,35.1359]},"properties":{"station_id":"06fceef3abc4aab5b223d6b085390a0d","name":"Pismo State Beach","county":"San Luis Obispo","n_obs":2164,"base_rate":0.092,"low_support":false,"hazard":"bacteria"}},{"type":"Feature","geometry":{"type":"Point","coordinates":[-122.26061,37.56658]},"properties":{"station_id":"4f45a19cc1ac99c33fb633c92f24177f","name":"Gull Park, Foster City","county":"San Mateo","n_obs":1011,"base_rate":0.5183,"low_support":false,"hazard":"bacteria"}},{"type":"Feature","geometry":{"type":"Point","coordinates":[-122.49582,37.50025]},"properties":{"station_id":"858191d955b034a3d0264698725723a2","name":"Pillar Point Harbor","county":"San Mateo","n_obs":2200,"base_rate":0.2645,"low_support":false,"hazard":"bacteria"}},{"type":"Feature","geometry":{"type":"Point","coordinates":[-122.02314,36.96162]},"properties":{"station_id":"1fab2c668ea420ee1491d677cff9a182","name":"Cowell Beach","county":"Santa Cruz","n_obs":6,"base_rate":0.1667,"low_support":true,"hazard":"bacteria"}},{"type":"Feature","geometry":{"type":"Point","coordinates":[-122.04128,36.95261]},"properties":{"station_id":"38583098f312179ac6439845b055f622","name":"Mitchell's Cove Beach","county":"Santa Cruz","n_obs":1522,"base_rate":0.1721,"low_support":false,"hazard":"bacteria"}},{"type":"Feature","geometry":{"type":"Point","coordinates":[-122.00856,36.96299]},"properties":{"station_id":"2463f4bf33adaa2819a12713d4b806e8","name":"Seabright Beach","county":"Santa Cruz","n_obs":2887,"base_rate":0.1417,"low_support":false,"hazard":"bacteria"}},{"type":"Feature","geometry":{"type":"Point","coordinates":[-119.18365,34.13577]},"properties":{"station_id":"2b1156b2e025da8ad2dfadeb21414756","name":"Ormond Beach","county":"Ventura","n_obs":1724,"base_rate":0.0429,"low_support":false,"hazard":"bacteria"}},{"type":"Feature","geometry":{"type":"Point","coordinates":[-119.47495,34.3739]},"properties":{"station_id":"da44ef84582199a1b6fcdb54cd0e9a5d","name":"Rincon Beach","county":"Ventura","n_obs":330,"base_rate":0.1242,"low_support":false,"hazard":"bacteria"}},{"type":"Feature","geometry":{"type":"Point","coordinates":[-118.13468,33.77102]},"properties":{"station_id":"41b707bde7ef2fbb96ccad380ca4e76a","name":"Colorado Lagoon","county":"Long Beach City","n_obs":3,"base_rate":0.3333,"low_support":true,"hazard":"bacteria"}},{"type":"Feature","geometry":{"type":"Point","coordinates":[-118.11916,33.74454]},"properties":{"station_id":"d3bed8256cdc2a7bef381f9a3d65fb9f","name":"Long Beach","county":"Long Beach City","n_obs":2913,"base_rate":0.2746,"low_support":false,"hazard":"bacteria"}},{"type":"Feature","geometry":{"type":"Point","coordinates":[-118.43326,33.9232]},"properties":{"station_id":"ee24a96d044fdf594f255175062fd751","name":"Dockweiler State Beach","county":"Los Angeles","n_obs":2303,"base_rate":0.0838,"low_support":false,"hazard":"bacteria"}},{"type":"Feature","geometry":{"type":"Point","coordinates":[-118.45196,33.95702]},"properties":{"station_id":"75a4cbae3409d63991bad7da6978bb88","name":"Dockweiler State Beach","county":"Los Angeles","n_obs":2240,"base_rate":0.2321,"low_support":false,"hazard":"bacteria"}},{"type":"Feature","geometry":{"type":"Point","coordinates":[-118.4442,33.9444]},"properties":{"station_id":"ea96797f1511b5b5359483dd31f60458","name":"Dockweiler State Beach","county":"Los Angeles","n_obs":1066,"base_rate":0.197,"low_support":false,"hazard":"bacteria"}},{"type":"Feature","geometry":{"type":"Point","coordinates":[-118.4555,33.96077]},"properties":{"station_id":"0ac02451fef7cb4fb58672d3bc8a4902","name":"Dockweiler State Beach","county":"Los Angeles","n_obs":2270,"base_rate":0.3427,"low_support":false,"hazard":"bacteria"}},{"type":"Feature","geometry":{"type":"Point","coordinates":[-118.61012,34.0367]},"properties":{"station_id":"1addefdae6ae48f3b7688b63bae833e0","name":"Malibu Beach","county":"Los Angeles","n_obs":1987,"base_rate":0.1248,"low_support":false,"hazard":"bacteria"}},{"type":"Feature","geometry":{"type":"Point","coordinates":[-118.45802,33.98084]},"properties":{"station_id":"c669e80caafa3072ebcc06c0335f3b83","name":"Marina Del Rey Beach - Mothers Beach","county":"Los Angeles","n_obs":5219,"base_rate":0.4896,"low_support":false,"hazard":"bacteria"}},{"type":"Feature","geometry":{"type":"Point","coordinates":[-118.91619,34.04234]},"properties":{"station_id":"ec96a95bf024999de2d5171109a5d057","name":"Nicholas Canyon County Beach","county":"Los Angeles","n_obs":2078,"base_rate":0.0443,"low_support":false,"hazard":"bacteria"}},{"type":"Feature","geometry":{"type":"Point","coordinates":[-118.51038,34.02]},"properties":{"station_id":"728ca6814655917d2a697f920c80a4bd","name":"Santa Monica State Beach","county":"Los Angeles","n_obs":2269,"base_rate":0.1468,"low_support":false,"hazard":"bacteria"}},{"type":"Feature","geometry":{"type":"Point","coordinates":[-118.54393,34.03833]},"properties":{"station_id":"117eec6c373c1e1052e82f50de05bb51","name":"Will Rogers State Beach","county":"Los Angeles","n_obs":2300,"base_rate":0.2717,"low_support":false,"hazard":"bacteria"}},{"type":"Feature","geometry":{"type":"Point","coordinates":[-121.88727,36.60104]},"properties":{"station_id":"02acbee759a28d6e865a9842eb4e6104","name":"Del Monte Beach","county":"Monterey","n_obs":1485,"base_rate":0.2983,"low_support":false,"hazard":"bacteria"}},{"type":"Feature","geometry":{"type":"Point","coordinates":[-121.81553,36.23801]},"properties":{"station_id":"0ad7e20fab83cc491028e685472fb4c9","name":"Julia Pfeiffer Burns State Beach","county":"Monterey","n_obs":255,"base_rate":0.0235,"low_support":false,"hazard":"bacteria"}},{"type":"Feature","geometry":{"type":"Point","coordinates":[-121.92737,36.52301]},"properties":{"station_id":"9ed70374a3cda345d8219a8c39836016","name":"Monastery Beach","county":"Monterey","n_obs":21,"base_rate":0.0952,"low_support":true,"hazard":"bacteria"}},{"type":"Feature","geometry":{"type":"Point","coordinates":[-117.80147,33.54658]},"properties":{"station_id":"f3e143c19da3ced7e53ab0e54c61534f","name":"Doheny State Beach","county":"Orange","n_obs":21,"base_rate":0.8095,"low_support":true,"hazard":"bacteria"}},{"type":"Feature","geometry":{"type":"Point","coordinates":[-117.76302,33.51919]},"properties":{"station_id":"e619904fae28be1013c75fd2208140ba","name":"Laguna Beach","county":"Orange","n_obs":111,"base_rate":0.0811,"low_support":false,"hazard":"bacteria"}},{"type":"Feature","geometry":{"type":"Point","coordinates":[-117.79458,33.54475]},"properties":{"station_id":"589a12328bb59dbd8e1f6a8cb962af33","name":"Laguna Beach","county":"Orange","n_obs":120,"base_rate":0.0583,"low_support":false,"hazard":"bacteria"}},{"type":"Feature","geometry":{"type":"Point","coordinates":[-117.72508,33.48182]},"properties":{"station_id":"e377949528d41e176962ed390815bdd3","name":"Monarch Beach","county":"Orange","n_obs":1803,"base_rate":0.1941,"low_support":false,"hazard":"bacteria"}},{"type":"Feature","geometry":{"type":"Point","coordinates":[-117.88566,33.63078]},"properties":{"station_id":"19a0a38f306bbe6070faf42ed74b359a","name":"Newport Bay","county":"Orange","n_obs":604,"base_rate":0.298,"low_support":false,"hazard":"bacteria"}},{"type":"Feature","geometry":{"type":"Point","coordinates":[-117.88633,33.6395]},"properties":{"station_id":"6eb40b6aaaee2c28341bab963a2604da","name":"Newport Bay","county":"Orange","n_obs":115,"base_rate":0.4609,"low_support":false,"hazard":"bacteria"}},{"type":"Feature","geometry":{"type":"Point","coordinates":[-117.92425,33.63097]},"properties":{"station_id":"e26a6899bbfaa5c773525a897dda1d3a","name":"Newport Beach","county":"Orange","n_obs":3416,"base_rate":0.0416,"low_support":false,"hazard":"bacteria"}},{"type":"Feature","geometry":{"type":"Point","coordinates":[-117.86851,33.58991]},"properties":{"station_id":"b0048b14269cc500a6868a39082a4c66","name":"Newport Beach","county":"Orange","n_obs":2367,"base_rate":0.2222,"low_support":false,"hazard":"bacteria"}},{"type":"Feature","geometry":{"type":"Point","coordinates":[-117.64636,33.44125]},"properties":{"station_id":"8c6905e7c8894aa8dce77cf35a493f57","name":"Poche County Beach","county":"Orange","n_obs":2576,"base_rate":0.1891,"low_support":false,"hazard":"bacteria"}},{"type":"Feature","geometry":{"type":"Point","coordinates":[-117.62533,33.42433]},"properties":{"station_id":"fb682814954e75230f55ba10a94b4d75","name":"San Clemente City Beach","county":"Orange","n_obs":3,"base_rate":1.0,"low_support":true,"hazard":"bacteria"}},{"type":"Feature","geometry":{"type":"Point","coordinates":[-117.62,33.41957]},"properties":{"station_id":"3aa653006417d3154e11a9cbc4e3ce39","name":"San Clemente City Beach","county":"Orange","n_obs":867,"base_rate":0.1107,"low_support":false,"hazard":"bacteria"}},{"type":"Feature","geometry":{"type":"Point","coordinates":[-117.63807,33.4352]},"properties":{"station_id":"904739d18cac78887230056677dfbbbc","name":"San Clemente City Beach","county":"Orange","n_obs":33,"base_rate":0.1515,"low_support":false,"hazard":"bacteria"}},{"type":"Feature","geometry":{"type":"Point","coordinates":[-117.61787,33.41796]},"properties":{"station_id":"eb550b0ac5bf40ff5f38157cca01746c","name":"San Clemente City Beach","county":"Orange","n_obs":144,"base_rate":0.1042,"low_support":false,"hazard":"bacteria"}},{"type":"Feature","geometry":{"type":"Point","coordinates":[-118.11504,33.74261]},"properties":{"station_id":"8d78ecc252e8494d7e19aaf47af08264","name":"Seal Beach Surfside","county":"Orange","n_obs":24,"base_rate":0.4583,"low_support":true,"hazard":"bacteria"}},{"type":"Feature","geometry":{"type":"Point","coordinates":[-117.27839,33.00132]},"properties":{"station_id":"b7c81b345fcca3876943e7938d389333","name":"Cardiff State Beach","county":"San Diego","n_obs":3181,"base_rate":0.0148,"low_support":false,"hazard":"bacteria"}},{"type":"Feature","geometry":{"type":"Point","coordinates":[-117.13321,32.56658]},"properties":{"station_id":"3f359b0f962cd0b4dca22511f30d9c7d","name":"Imperial Beach municipal beach, other","county":"San Diego","n_obs":6835,"base_rate":0.3805,"low_support":false,"hazard":"bacteria"}},{"type":"Feature","geometry":{"type":"Point","coordinates":[-117.133,32.5847]},"properties":{"station_id":"956dcf44119664dfebb3967ab3f0b8d0","name":"Imperial Beach municipal beach, other","county":"San Diego","n_obs":127,"base_rate":0.4173,"low_support":false,"hazard":"bacteria"}},{"type":"Feature","geometry":{"type":"Point","coordinates":[-117.21689,32.7829]},"properties":{"station_id":"8923b000629979d978f1dc8fce1cc194","name":"Mission Bay","county":"San Diego","n_obs":2,"base_rate":1.0,"low_support":true,"hazard":"bacteria"}},{"type":"Feature","geometry":{"type":"Point","coordinates":[-117.2325,32.7823]},"properties":{"station_id":"ff3e149b14d757c1d22856e596b38779","name":"Mission Bay","county":"San Diego","n_obs":1495,"base_rate":0.1344,"low_support":false,"hazard":"bacteria"}},{"type":"Feature","geometry":{"type":"Point","coordinates":[-117.21634,32.7951]},"properties":{"station_id":"8229238b3b92eec7f1af76f00e86d43d","name":"Mission Bay, De Anza Cove","county":"San Diego","n_obs":39,"base_rate":0.2564,"low_support":false,"hazard":"bacteria"}},{"type":"Feature","geometry":{"type":"Point","coordinates":[-117.24468,32.77088]},"properties":{"station_id":"2b5b2eb228a1b33189c4dee323b25a5e","name":"Mission Bay, Ventura Cove","county":"San Diego","n_obs":759,"base_rate":0.1858,"low_support":false,"hazard":"bacteria"}},{"type":"Feature","geometry":{"type":"Point","coordinates":[-117.25327,32.74911]},"properties":{"station_id":"a5812e9fc7fdaa37441f39a7630d32ba","name":"Ocean Beach","county":"San Diego","n_obs":4010,"base_rate":0.0773,"low_support":false,"hazard":"bacteria"}},{"type":"Feature","geometry":{"type":"Point","coordinates":[-117.25888,32.78898]},"properties":{"station_id":"18d1c01c011faea90d65c23666b879ab","name":"Pacific Beach","county":"San Diego","n_obs":13,"base_rate":0.0,"low_support":true,"hazard":"bacteria"}},{"type":"Feature","geometry":{"type":"Point","coordinates":[-117.5952,33.3855]},"properties":{"station_id":"0be88d4380aec8783311587e353af499","name":"San Onofre State Beach","county":"San Diego","n_obs":749,"base_rate":0.3672,"low_support":false,"hazard":"bacteria"}},{"type":"Feature","geometry":{"type":"Point","coordinates":[-122.48419,37.79297]},"properties":{"station_id":"670d4e40d7664296d152e5b7c9641028","name":"Baker Beach","county":"San Francisco","n_obs":2841,"base_rate":0.1352,"low_support":false,"hazard":"bacteria"}},{"type":"Feature","geometry":{"type":"Point","coordinates":[-122.48493,37.7917]},"properties":{"station_id":"54c25ce5d92e7a61b59e7635e18007ea","name":"Baker Beach","county":"San Francisco","n_obs":2909,"base_rate":0.3933,"low_support":false,"hazard":"bacteria"}},{"type":"Feature","geometry":{"type":"Point","coordinates":[-120.86526,35.37164]},"properties":{"station_id":"5114bab7fbb35d954f3f438ba8a5c2b5","name":"Morro Bay City Beach","county":"San Luis Obispo","n_obs":2145,"base_rate":0.062,"low_support":false,"hazard":"bacteria"}},{"type":"Feature","geometry":{"type":"Point","coordinates":[-120.86472,35.37834]},"properties":{"station_id":"cd3cd0799758cc2b3e48933ae4d36360","name":"Morro Bay City Beach","county":"San Luis Obispo","n_obs":2181,"base_rate":0.0894,"low_support":false,"hazard":"bacteria"}},{"type":"Feature","geometry":{"type":"Point","coordinates":[-122.36305,37.16531]},"properties":{"station_id":"e680c79fa10e6f52656c88ce69be5bbf","name":"Gazos Creek Access","county":"San Mateo","n_obs":1990,"base_rate":0.1603,"low_support":false,"hazard":"bacteria"}},{"type":"Feature","geometry":{"type":"Point","coordinates":[-122.254,37.55874]},"properties":{"station_id":"380e177d2ef9ef2581369d3749f20f0b","name":"Marlin Park, Foster City","county":"San Mateo","n_obs":1014,"base_rate":0.5493,"low_support":false,"hazard":"bacteria"}},{"type":"Feature","geometry":{"type":"Point","coordinates":[-122.49282,37.50207]},"properties":{"station_id":"cac37a4ee8cc3579390c5921cf602e53","name":"Pillar Point Harbor","county":"San Mateo","n_obs":2221,"base_rate":0.4075,"low_support":false,"hazard":"bacteria"}},{"type":"Feature","geometry":{"type":"Point","coordinates":[-120.65014,34.96942]},"properties":{"station_id":"d4fbce096f48c551efae1fd2df03c276","name":"Guadalupe Dunes","county":"Santa Barbara","n_obs":1778,"base_rate":0.0202,"low_support":false,"hazard":"bacteria"}},{"type":"Feature","geometry":{"type":"Point","coordinates":[-121.89566,36.96172]},"properties":{"station_id":"b9b33c523ea9030fcb4985b42660e549","name":"Hidden Beach","county":"Santa Cruz","n_obs":43,"base_rate":0.0233,"low_support":false,"hazard":"bacteria"}},{"type":"Feature","geometry":{"type":"Point","coordinates":[-122.02856,36.9517]},"properties":{"station_id":"1285dae3a40132ca5b9cf61bf3704f86","name":"Lighthouse Beach","county":"Santa Cruz","n_obs":477,"base_rate":0.1405,"low_support":false,"hazard":"bacteria"}},{"type":"Feature","geometry":{"type":"Point","coordinates":[-119.4281,34.35218]},"properties":{"station_id":"0cf341e27b2550847353949f1c83525b","name":"Oil Piers Beach","county":"Ventura","n_obs":2028,"base_rate":0.0365,"low_support":false,"hazard":"bacteria"}},{"type":"Feature","geometry":{"type":"Point","coordinates":[-119.0237,34.0752]},"properties":{"station_id":"d3e54fb2086f35b5cc19d6ff179d5766","name":"Thornhill Broome Beach","county":"Ventura","n_obs":1204,"base_rate":0.0108,"low_support":false,"hazard":"bacteria"}},{"type":"Feature","geometry":{"type":"Point","coordinates":[-118.741,34.0329]},"properties":{"station_id":"2d5f17a2ba07814677ec2fbff0803f0f","name":"Dan Blocker County Beach","county":"Los Angeles","n_obs":1158,"base_rate":0.2832,"low_support":false,"hazard":"bacteria"}},{"type":"Feature","geometry":{"type":"Point","coordinates":[-118.40663,33.87146]},"properties":{"station_id":"674431da99f7abb53f87a0dca1cc4211","name":"Hermosa Beach","county":"Los Angeles","n_obs":2263,"base_rate":0.0473,"low_support":false,"hazard":"bacteria"}},{"type":"Feature","geometry":{"type":"Point","coordinates":[-118.4027,33.86112]},"properties":{"station_id":"8f85402f6829252447ff6dbdfd6e956e","name":"Hermosa Beach","county":"Los Angeles","n_obs":348,"base_rate":0.1034,"low_support":false,"hazard":"bacteria"}},{"type":"Feature","geometry":{"type":"Point","coordinates":[-118.283,33.71333]},"properties":{"station_id":"eb4155cff3f06758848294ae3ae9f95a","name":"Inner Cabrillo Beach","county":"Los Angeles","n_obs":10942,"base_rate":0.2846,"low_support":false,"hazard":"bacteria"}},{"type":"Feature","geometry":{"type":"Point","coordinates":[-118.41868,33.89441]},"properties":{"station_id":"8e67700aa2a9c3f54dbab0fe6aca8379","name":"Manhattan Beach","county":"Los Angeles","n_obs":7081,"base_rate":0.1203,"low_support":false,"hazard":"bacteria"}},{"type":"Feature","geometry":{"type":"Point","coordinates":[-118.29901,33.7101]},"properties":{"station_id":"4a56b59d7aaf3e810123bbc13714c78e","name":"Point Fermin Park","county":"Los Angeles","n_obs":967,"base_rate":0.0807,"low_support":false,"hazard":"bacteria"}},{"type":"Feature","geometry":{"type":"Point","coordinates":[-122.8646,38.10941]},"properties":{"station_id":"3eca36e80273fe15127f8014266ccd53","name":"Chicken Ranch","county":"Marin","n_obs":1680,"base_rate":0.2399,"low_support":false,"hazard":"bacteria"}},{"type":"Feature","geometry":{"type":"Point","coordinates":[-122.86538,38.11018]},"properties":{"station_id":"56054376f924d5d8f6b2b1e0b9b49c19","name":"Chicken Ranch","county":"Marin","n_obs":279,"base_rate":0.7133,"low_support":false,"hazard":"bacteria"}},{"type":"Feature","geometry":{"type":"Point","coordinates":[-122.47742,37.83212]},"properties":{"station_id":"40b55129faab39c23f9eebae59beed1c","name":"Fort Baker Horseshoe Cove","county":"Marin","n_obs":1295,"base_rate":0.0517,"low_support":false,"hazard":"bacteria"}},{"type":"Feature","geometry":{"type":"Point","coordinates":[-123.80472,39.47224]},"properties":{"station_id":"80dc4310aab90e51867bd76d087d33b9","name":"Virgin Creek","county":"Mendocino","n_obs":845,"base_rate":0.0769,"low_support":false,"hazard":"bacteria"}},{"type":"Feature","geometry":{"type":"Point","coordinates":[-117.75723,33.51326]},"properties":{"station_id":"51158d5369913a8645794122f4035d72","name":"Aliso County Beach","county":"Orange","n_obs":3250,"base_rate":0.0292,"low_support":false,"hazard":"bacteria"}},{"type":"Feature","geometry":{"type":"Point","coordinates":[-117.84049,33.57391]},"properties":{"station_id":"d0f098e716b82f76ba1cdbb646b8141b","name":"Crystal Cove State Park","county":"Orange","n_obs":2282,"base_rate":0.0469,"low_support":false,"hazard":"bacteria"}},{"type":"Feature","geometry":{"type":"Point","coordinates":[-117.705,33.46216]},"properties":{"station_id":"7d96decaf8899e27d808d76cb2badb37","name":"Dana Point Harbor","county":"Orange","n_obs":2224,"base_rate":0.1794,"low_support":false,"hazard":"bacteria"}},{"type":"Feature","geometry":{"type":"Point","coordinates":[-117.97541,33.63838]},"properties":{"station_id":"251017a7727c5bd6c76db1773ec3dc40","name":"Huntington State Beach","county":"Orange","n_obs":5484,"base_rate":0.1349,"low_support":false,"hazard":"bacteria"}},{"type":"Feature","geometry":{"type":"Point","coordinates":[-117.78583,33.54283]},"properties":{"station_id":"9f82cbc73d185550dfda65e46652d28c","name":"Laguna Beach","county":"Orange","n_obs":75,"base_rate":0.1733,"low_support":false,"hazard":"bacteria"}},{"type":"Feature","geometry":{"type":"Point","coordinates":[-117.77273,33.52868]},"properties":{"station_id":"76020822d5416a96c47d4b0b529fe1b0","name":"Laguna Beach","county":"Orange","n_obs":288,"base_rate":0.0799,"low_support":false,"hazard":"bacteria"}},{"type":"Feature","geometry":{"type":"Point","coordinates":[-117.78361,33.54087]},"properties":{"station_id":"737d23ba4c41dbf2e4d95d397e362e75","name":"Laguna Beach","county":"Orange","n_obs":54,"base_rate":0.4444,"low_support":false,"hazard":"bacteria"}},{"type":"Feature","geometry":{"type":"Point","coordinates":[-117.74768,33.50461]},"properties":{"station_id":"01f2a2104d71cf6cda10a52487057ece","name":"Laguna Beach","county":"Orange","n_obs":33,"base_rate":0.4545,"low_support":false,"hazard":"bacteria"}},{"type":"Feature","geometry":{"type":"Point","coordinates":[-117.90393,33.60561]},"properties":{"station_id":"c46915a277a3c84a84e6e7710a7ee78f","name":"Newport Bay","county":"Orange","n_obs":2354,"base_rate":0.1024,"low_support":false,"hazard":"bacteria"}},{"type":"Feature","geometry":{"type":"Point","coordinates":[-117.88295,33.59871]},"properties":{"station_id":"fbb7447bc5dc006cf19a44028627011c","name":"Newport Bay","county":"Orange","n_obs":2286,"base_rate":0.0534,"low_support":false,"hazard":"bacteria"}},{"type":"Feature","geometry":{"type":"Point","coordinates":[-117.63287,33.43147]},"properties":{"station_id":"9d899b9b52dea30a171b85f26a821678","name":"San Clemente City Beach","county":"Orange","n_obs":9,"base_rate":0.2222,"low_support":true,"hazard":"bacteria"}},{"type":"Feature","geometry":{"type":"Point","coordinates":[-118.11482,33.74043]},"properties":{"station_id":"06968ac6bad214ccb12d81ca778f6853","name":"Seal Beach Surfside","county":"Orange","n_obs":3641,"base_rate":0.2225,"low_support":false,"hazard":"bacteria"}},{"type":"Feature","geometry":{"type":"Point","coordinates":[-118.11103,33.73889]},"properties":{"station_id":"6efe55080a81aeea837e5c9cd54bb2e2","name":"Seal Beach Surfside","county":"Orange","n_obs":2437,"base_rate":0.231,"low_support":false,"hazard":"bacteria"}},{"type":"Feature","geometry":{"type":"Point","coordinates":[-117.17722,32.67761]},"properties":{"station_id":"029ee6d509117042dee8d57e1f76b57e","name":"Coronado City beaches","county":"San Diego","n_obs":4897,"base_rate":0.088,"low_support":false,"hazard":"bacteria"}},{"type":"Feature","geometry":{"type":"Point","coordinates":[-117.26865,32.95662]},"properties":{"station_id":"1f2bf99334aa11138d5e4b7417a021a9","name":"Del Mar City Beach","county":"San Diego","n_obs":3,"base_rate":0.0,"low_support":true,"hazard":"bacteria"}},{"type":"Feature","geometry":{"type":"Point","coordinates":[-117.3922,33.20156]},"properties":{"station_id":"1e2364aacff2c0b89c3f3a9ff1fe9911","name":"Harbor Beach","county":"San Diego","n_obs":3917,"base_rate":0.1785,"low_support":false,"hazard":"bacteria"}},{"type":"Feature","geometry":{"type":"Point","coordinates":[-117.2475,32.7695]},"properties":{"station_id":"e94e5c208d5fcb2d130b8c029f116a8d","name":"Mission Bay, Mariners Basin","county":"San Diego","n_obs":1077,"base_rate":0.1374,"low_support":false,"hazard":"bacteria"}},{"type":"Feature","geometry":{"type":"Point","coordinates":[-117.25356,32.77131]},"properties":{"station_id":"0561276e60561f5fc62d4e3be7258e64","name":"Mission Beach","county":"San Diego","n_obs":3527,"base_rate":0.0323,"low_support":false,"hazard":"bacteria"}},{"type":"Feature","geometry":{"type":"Point","coordinates":[-117.2989,33.0481]},"properties":{"station_id":"37824c06429fd529d1e4421c45c1f5b8","name":"Moonlight Beach","county":"San Diego","n_obs":4147,"base_rate":0.1876,"low_support":false,"hazard":"bacteria"}},{"type":"Feature","geometry":{"type":"Point","coordinates":[-117.22416,32.71477]},"properties":{"station_id":"d82f7595c27d46bb1ab3f50856b8de39","name":"San Diego Bay","county":"San Diego","n_obs":2353,"base_rate":0.1844,"low_support":false,"hazard":"bacteria"}},{"type":"Feature","geometry":{"type":"Point","coordinates":[-117.23684,32.70921]},"properties":{"station_id":"c788703dde9f643084f437634b04f180","name":"San Diego Bay","county":"San Diego","n_obs":1287,"base_rate":0.108,"low_support":false,"hazard":"bacteria"}},{"type":"Feature","geometry":{"type":"Point","coordinates":[-117.1507,32.69586]},"properties":{"station_id":"22f35e1cb4794db5304a08d337a18c98","name":"San Diego Bay","county":"San Diego","n_obs":21,"base_rate":0.5714,"low_support":true,"hazard":"bacteria"}},{"type":"Feature","geometry":{"type":"Point","coordinates":[-117.2889,33.0283]},"properties":{"station_id":"f4ae2d3517fa944cf1c31912557001b8","name":"San Elijo State Beach","county":"San Diego","n_obs":3066,"base_rate":0.0228,"low_support":false,"hazard":"bacteria"}},{"type":"Feature","geometry":{"type":"Point","coordinates":[-117.14383,32.6358]},"properties":{"station_id":"90ee0bbc0f28ff6063ac76a0c73c0e05","name":"Silver Strand State Beach","county":"San Diego","n_obs":4501,"base_rate":0.2162,"low_support":false,"hazard":"bacteria"}},{"type":"Feature","geometry":{"type":"Point","coordinates":[-117.27482,32.99132]},"properties":{"station_id":"afc1c70972d6c4d539f23a5e4fe03fe6","name":"Solana Beach City Beaches","county":"San Diego","n_obs":3223,"base_rate":0.0422,"low_support":false,"hazard":"bacteria"}},{"type":"Feature","geometry":{"type":"Point","coordinates":[-117.25694,32.71933]},"properties":{"station_id":"b7916fafaa6b627440102a9e645c2982","name":"Sunset Cliffs Park","county":"San Diego","n_obs":3431,"base_rate":0.0804,"low_support":false,"hazard":"bacteria"}},{"type":"Feature","geometry":{"type":"Point","coordinates":[-117.21057,32.77503]},"properties":{"station_id":"977bbdb68a4c16a4effd659e6b09939e","name":"Tecolote Shores","county":"San Diego","n_obs":1351,"base_rate":0.1954,"low_support":false,"hazard":"bacteria"}},{"type":"Feature","geometry":{"type":"Point","coordinates":[-117.13236,32.58765]},"properties":{"station_id":"d80eb35d0c5be123307a12bdb4fc980c","name":"north Imperial Beach","county":"San Diego","n_obs":87,"base_rate":0.023,"low_support":false,"hazard":"bacteria"}},{"type":"Feature","geometry":{"type":"Point","coordinates":[-122.38012,37.71124]},"properties":{"station_id":"fa95cd57b3905eb9a48aa9c0150e8854","name":"Candlestick Point","county":"San Francisco","n_obs":2680,"base_rate":0.2623,"low_support":false,"hazard":"bacteria"}},{"type":"Feature","geometry":{"type":"Point","coordinates":[-120.90553,35.44834]},"properties":{"station_id":"8f874a2cafaa8c0ab99daaec16343281","name":"Cayucos Beach","county":"San Luis Obispo","n_obs":2149,"base_rate":0.0959,"low_support":false,"hazard":"bacteria"}},{"type":"Feature","geometry":{"type":"Point","coordinates":[-122.32776,37.5893]},"properties":{"station_id":"e398f80b8ca665c38fdd81384576d2cb","name":"Coyote Point County Park","county":"San Mateo","n_obs":2004,"base_rate":0.2685,"low_support":false,"hazard":"bacteria"}},{"type":"Feature","geometry":{"type":"Point","coordinates":[-122.26047,37.56337]},"properties":{"station_id":"484635c06dc5b2c767fe4f5b811c52a6","name":"Erckenbrack Park, Foster City","county":"San Mateo","n_obs":1032,"base_rate":0.6318,"low_support":false,"hazard":"bacteria"}},{"type":"Feature","geometry":{"type":"Point","coordinates":[-122.4562,37.489]},"properties":{"station_id":"b349a597b68af9bc41ff76a9f4fff470","name":"Roosevelt State Beach","county":"San Mateo","n_obs":313,"base_rate":0.7252,"low_support":false,"hazard":"bacteria"}},{"type":"Feature","geometry":{"type":"Point","coordinates":[-122.46035,37.49007]},"properties":{"station_id":"b361eafff70f718e51bfb4eb1d13ecdc","name":"Surfers Beach","county":"San Mateo","n_obs":2124,"base_rate":0.1629,"low_support":false,"hazard":"bacteria"}},{"type":"Feature","geometry":{"type":"Point","coordinates":[-120.02203,34.45792]},"properties":{"station_id":"509a12158d8f342835eb344bc02d3a22","name":"El Capitan State Beach","county":"Santa Barbara","n_obs":2065,"base_rate":0.1148,"low_support":false,"hazard":"bacteria"}},{"type":"Feature","geometry":{"type":"Point","coordinates":[-122.02003,36.96286]},"properties":{"station_id":"59361973342417694ae0ed6a7ef56c6a","name":"Main Beach","county":"Santa Cruz","n_obs":2209,"base_rate":0.3839,"low_support":false,"hazard":"bacteria"}},{"type":"Feature","geometry":{"type":"Point","coordinates":[-123.29761,38.54697]},"properties":{"station_id":"6dbd20d94992c21795354e43dbfb014a","name":"Still Water Cove Regional Park Beach","county":"Sonoma","n_obs":1386,"base_rate":0.0325,"low_support":false,"hazard":"bacteria"}},{"type":"Feature","geometry":{"type":"Point","coordinates":[-118.96452,34.0522]},"properties":{"station_id":"86687a4069a6a50494de6de2b0d30c01","name":"County Line Beach","county":"Ventura","n_obs":330,"base_rate":0.0061,"low_support":false,"hazard":"bacteria"}},{"type":"Feature","geometry":{"type":"Point","coordinates":[-119.23846,34.17873]},"properties":{"station_id":"a3e93825fdd03aedc41b9c4be94d0b5b","name":"Oxnard Beach Park","county":"Ventura","n_obs":1343,"base_rate":0.041,"low_support":false,"hazard":"bacteria"}},{"type":"Feature","geometry":{"type":"Point","coordinates":[-119.28883,34.27362]},"properties":{"station_id":"83b71ad1317b77e36197f0d970d73ec1","name":"San Buenaventura State Beach","county":"Ventura","n_obs":1222,"base_rate":0.1923,"low_support":false,"hazard":"bacteria"}},{"type":"Feature","geometry":{"type":"Point","coordinates":[-119.41772,34.3104]},"properties":{"station_id":"4e3a864b70596bddaf330d8a019c22fd","name":"Solimar Beach","county":"Ventura","n_obs":2195,"base_rate":0.0907,"low_support":false,"hazard":"bacteria"}},{"type":"Feature","geometry":{"type":"Point","coordinates":[-118.12645,33.75119]},"properties":{"station_id":"62b97c56e93e2550e598c499f8770464","name":"Alamitos Bay Beach","county":"Long Beach City","n_obs":1818,"base_rate":0.269,"low_support":false,"hazard":"bacteria"}},{"type":"Feature","geometry":{"type":"Point","coordinates":[-118.17843,33.76393]},"properties":{"station_id":"a0eeb8f4273f8a980926381af9f2da74","name":"Long Beach","county":"Long Beach City","n_obs":4713,"base_rate":0.3486,"low_support":false,"hazard":"bacteria"}},{"type":"Feature","geometry":{"type":"Point","coordinates":[-118.14418,33.75641]},"properties":{"station_id":"3a2e4e60816e6c86ec0bfe18cfb5be6f","name":"Long Beach","county":"Long Beach City","n_obs":2999,"base_rate":0.3041,"low_support":false,"hazard":"bacteria"}},{"type":"Feature","geometry":{"type":"Point","coordinates":[-118.43711,33.93071]},"properties":{"station_id":"8f7eb1ff4b257c0da230022709be18b2","name":"Dockweiler State Beach","county":"Los Angeles","n_obs":2163,"base_rate":0.1567,"low_support":false,"hazard":"bacteria"}},{"type":"Feature","geometry":{"type":"Point","coordinates":[-118.67853,34.0351]},"properties":{"station_id":"6bf092c8af4324d5764974edffc7965b","name":"Malibu Lagoon State Beach","county":"Los Angeles","n_obs":11172,"base_rate":0.3681,"low_support":false,"hazard":"bacteria"}},{"type":"Feature","geometry":{"type":"Point","coordinates":[-118.7918,34.0138]},"properties":{"station_id":"e333a7732938b2c05719a765b8f30eee","name":"Point Dume County Beach","county":"Los Angeles","n_obs":3,"base_rate":0.6667,"low_support":true,"hazard":"bacteria"}},{"type":"Feature","geometry":{"type":"Point","coordinates":[-118.48488,33.99662]},"properties":{"station_id":"537a595ebd6305432278fd79d363dbbc","name":"Santa Monica State Beach","county":"Los Angeles","n_obs":11227,"base_rate":0.1635,"low_support":false,"hazard":"bacteria"}},{"type":"Feature","geometry":{"type":"Point","coordinates":[-122.46102,38.00042]},"properties":{"station_id":"51f407a2540affd4d4ae9f218a8e7540","name":"China Camp","county":"Marin","n_obs":1317,"base_rate":0.2149,"low_support":false,"hazard":"bacteria"}},{"type":"Feature","geometry":{"type":"Point","coordinates":[-122.4778,37.83317]},"properties":{"station_id":"3e30378d0ac19ee44a28310698e86b78","name":"Fort Baker Horseshoe Cove","county":"Marin","n_obs":1354,"base_rate":0.178,"low_support":false,"hazard":"bacteria"}},{"type":"Feature","geometry":{"type":"Point","coordinates":[-121.93095,36.53965]},"properties":{"station_id":"3d49a60eb82843bf865d20ecf64ee723","name":"Carmel River State Beach","county":"Monterey","n_obs":333,"base_rate":0.03,"low_support":false,"hazard":"bacteria"}},{"type":"Feature","geometry":{"type":"Point","coordinates":[-118.03532,33.68322]},"properties":{"station_id":"4f2d053dc60a5ebaf4d55421548bcad5","name":"Bolsa Chica State Beach","county":"Orange","n_obs":1068,"base_rate":0.0412,"low_support":false,"hazard":"bacteria"}},{"type":"Feature","geometry":{"type":"Point","coordinates":[-117.84916,33.57837]},"properties":{"station_id":"b10072d32f3fc51372830d91bc02eaec","name":"Crystal Cove State Park","county":"Orange","n_obs":3396,"base_rate":0.0256,"low_support":false,"hazard":"bacteria"}},{"type":"Feature","geometry":{"type":"Point","coordinates":[-117.84878,33.57911]},"properties":{"station_id":"0f69733829841ee25e23a3837d412ef1","name":"Crystal Cove State Park","county":"Orange","n_obs":2232,"base_rate":0.0287,"low_support":false,"hazard":"bacteria"}},{"type":"Feature","geometry":{"type":"Point","coordinates":[-117.70603,33.46166]},"properties":{"station_id":"189696a844af911f47b960345fef35b1","name":"Dana Point Harbor","county":"Orange","n_obs":2037,"base_rate":0.0967,"low_support":false,"hazard":"bacteria"}},{"type":"Feature","geometry":{"type":"Point","coordinates":[-117.68331,33.46273]},"properties":{"station_id":"c57a6855e0b5f5d56f7fcbaade4466e6","name":"Doheny State Beach","county":"Orange","n_obs":24,"base_rate":1.0,"low_support":true,"hazard":"bacteria"}},{"type":"Feature","geometry":{"type":"Point","coordinates":[-117.80833,33.55083]},"properties":{"station_id":"085a4521f73254bf95852c2e4bf735f0","name":"Emerald Bay","county":"Orange","n_obs":69,"base_rate":0.0145,"low_support":false,"hazard":"bacteria"}},{"type":"Feature","geometry":{"type":"Point","coordinates":[-118.01322,33.66385]},"properties":{"station_id":"86630852582876f006c754bca1f868d8","name":"Huntington City Beach","county":"Orange","n_obs":3408,"base_rate":0.0543,"low_support":false,"hazard":"bacteria"}},{"type":"Feature","geometry":{"type":"Point","coordinates":[-118.07121,33.72088]},"properties":{"station_id":"24e11b6ed3a64cf2b813f753a23b76e8","name":"Huntington Harbour","county":"Orange","n_obs":1947,"base_rate":0.0806,"low_support":false,"hazard":"bacteria"}},{"type":"Feature","geometry":{"type":"Point","coordinates":[-117.77347,33.52965]},"properties":{"station_id":"8f5b0e45bfd418faf72223752637e088","name":"Laguna Beach","county":"Orange","n_obs":693,"base_rate":0.1486,"low_support":false,"hazard":"bacteria"}},{"type":"Feature","geometry":{"type":"Point","coordinates":[-117.6124,33.51672]},"properties":{"station_id":"d716982d215190cd0162f2a50fededb4","name":"Laguna Beach","county":"Orange","n_obs":450,"base_rate":0.0111,"low_support":false,"hazard":"bacteria"}},{"type":"Feature","geometry":{"type":"Point","coordinates":[-117.80801,33.55099]},"properties":{"station_id":"4056f3306f1a557def48b2fe9e32488d","name":"Laguna Beach","county":"Orange","n_obs":1547,"base_rate":0.0207,"low_support":false,"hazard":"bacteria"}},{"type":"Feature","geometry":{"type":"Point","coordinates":[-117.90283,33.6009]},"properties":{"station_id":"3051c6fcdcc207dceece9c965227ce95","name":"Newport Beach","county":"Orange","n_obs":3406,"base_rate":0.0323,"low_support":false,"hazard":"bacteria"}},{"type":"Feature","geometry":{"type":"Point","coordinates":[-117.61379,33.41323]},"properties":{"station_id":"a925f7c2d4f7121f902e1b3499158b01","name":"San Clemente City Beach","county":"Orange","n_obs":3,"base_rate":0.3333,"low_support":true,"hazard":"bacteria"}},{"type":"Feature","geometry":{"type":"Point","coordinates":[-118.07234,33.71654]},"properties":{"station_id":"6fa1ade405f633cd06bb0d4fc124ee76","name":"Sunset County Beach","county":"Orange","n_obs":2340,"base_rate":0.0321,"low_support":false,"hazard":"bacteria"}},{"type":"Feature","geometry":{"type":"Point","coordinates":[-117.12492,32.52706]},"properties":{"station_id":"9a49c51b5994b76a37b0d0ad09b3fb7d","name":"Baja California, MEXICO","county":"San Diego","n_obs":3084,"base_rate":0.2821,"low_support":false,"hazard":"bacteria"}},{"type":"Feature","geometry":{"type":"Point","coordinates":[-117.3514,33.1554]},"properties":{"station_id":"d6a8e86777fb4ff16da0c37f83432531","name":"Carlsbad municipal beach","county":"San Diego","n_obs":35,"base_rate":0.7429,"low_support":false,"hazard":"bacteria"}},{"type":"Feature","geometry":{"type":"Point","coordinates":[-117.18526,32.68184]},"properties":{"station_id":"dbf1fd3c5aa375f124365a23320bb8f6","name":"Coronado City beaches","county":"San Diego","n_obs":2130,"base_rate":0.3155,"low_support":false,"hazard":"bacteria"}},{"type":"Feature","geometry":{"type":"Point","coordinates":[-117.20464,32.68578]},"properties":{"station_id":"88ca6af793be527ffac2c3aa821fef80","name":"Coronado north beach","county":"San Diego","n_obs":980,"base_rate":0.0102,"low_support":false,"hazard":"bacteria"}},{"type":"Feature","geometry":{"type":"Point","coordinates":[-117.26785,32.9556]},"properties":{"station_id":"989fd6daf1a7f8fff97e0874046a8fbf","name":"Del Mar City Beach","county":"San Diego","n_obs":6,"base_rate":0.0,"low_support":true,"hazard":"bacteria"}},{"type":"Feature","geometry":{"type":"Point","coordinates":[-117.3941,33.2044]},"properties":{"station_id":"2f8471cc002ac104aa8b45b26356dff3","name":"Harbor Beach","county":"San Diego","n_obs":1227,"base_rate":0.176,"low_support":false,"hazard":"bacteria"}},{"type":"Feature","geometry":{"type":"Point","coordinates":[-117.13302,32.56939]},"properties":{"station_id":"7e3a2974d47b03dee79132539941996e","name":"Imperial Beach municipal beach, other","county":"San Diego","n_obs":117,"base_rate":0.4017,"low_support":false,"hazard":"bacteria"}},{"type":"Feature","geometry":{"type":"Point","coordinates":[-117.25775,32.8558]},"properties":{"station_id":"c5532d975da9dbad8b20a13d504f2b8f","name":"La Jolla Shores Beach","county":"San Diego","n_obs":1413,"base_rate":0.0849,"low_support":false,"hazard":"bacteria"}},{"type":"Feature","geometry":{"type":"Point","coordinates":[-117.25406,32.75968]},"properties":{"station_id":"a263031845b56de233ff1eb14de66ec7","name":"Mission Beach","county":"San Diego","n_obs":232,"base_rate":0.6638,"low_support":false,"hazard":"bacteria"}},{"type":"Feature","geometry":{"type":"Point","coordinates":[-117.36605,33.17293]},"properties":{"station_id":"c981361579267e1b2930ecdbb2a004cb","name":"Oceanside municipal beach, other","county":"San Diego","n_obs":3307,"base_rate":0.0562,"low_support":false,"hazard":"bacteria"}},{"type":"Feature","geometry":{"type":"Point","coordinates":[-117.38187,33.19033]},"properties":{"station_id":"a1899d2d8b9c8724cf20d213e906952a","name":"Oceanside municipal beach, other","county":"San Diego","n_obs":3290,"base_rate":0.0444,"low_support":false,"hazard":"bacteria"}},{"type":"Feature","geometry":{"type":"Point","coordinates":[-117.1644,32.69012]},"properties":{"station_id":"d3562fb83e3e1b542b52901000b3655c","name":"San Diego Bay","county":"San Diego","n_obs":2840,"base_rate":0.2532,"low_support":false,"hazard":"bacteria"}},{"type":"Feature","geometry":{"type":"Point","coordinates":[-117.233,32.7182]},"properties":{"station_id":"1febafa6d27796df8fce69da91d97593","name":"San Diego Bay","county":"San Diego","n_obs":21,"base_rate":0.381,"low_support":true,"hazard":"bacteria"}},{"type":"Feature","geometry":{"type":"Point","coordinates":[-117.576,33.383]},"properties":{"station_id":"90c54ad4542ea50b54a846ba43770a93","name":"San Onofre State Beach","county":"San Diego","n_obs":45,"base_rate":0.0444,"low_support":false,"hazard":"bacteria"}},{"type":"Feature","geometry":{"type":"Point","coordinates":[-117.12932,32.55514]},"properties":{"station_id":"b4711e8e52bc05754b6df4f00d19ee68","name":"Tijuana Slough National Wildlife Refuge","county":"San Diego","n_obs":6111,"base_rate":0.4184,"low_support":false,"hazard":"bacteria"}},{"type":"Feature","geometry":{"type":"Point","coordinates":[-117.26329,32.94263]},"properties":{"station_id":"b8d295a376105fd9eff796b7005e2e75","name":"Torrey Pines State Beach","county":"San Diego","n_obs":3,"base_rate":0.0,"low_support":true,"hazard":"bacteria"}},{"type":"Feature","geometry":{"type":"Point","coordinates":[-117.2514,32.8778]},"properties":{"station_id":"c0fa34c0ab830c4957ceb51471c4036d","name":"Torrey Pines State Beach","county":"San Diego","n_obs":62,"base_rate":0.0806,"low_support":false,"hazard":"bacteria"}},{"type":"Feature","geometry":{"type":"Point","coordinates":[-117.282,32.83939]},"properties":{"station_id":"b55f00c0b3b9f503b26886b4cae65d0b","name":"Whispering Sands  Nicholson Pt.","county":"San Diego","n_obs":2640,"base_rate":0.0932,"low_support":false,"hazard":"bacteria"}},{"type":"Feature","geometry":{"type":"Point","coordinates":[-122.50764,37.73516]},"properties":{"station_id":"c8ee1998ecb53f7ca0286db2dd9c2e9a","name":"Ocean Beach","county":"San Francisco","n_obs":2549,"base_rate":0.0945,"low_support":false,"hazard":"bacteria"}},{"type":"Feature","geometry":{"type":"Point","coordinates":[-122.50808,37.73779]},"properties":{"station_id":"b11a7ab31f1f32b196c2f394b344734b","name":"Ocean Beach","county":"San Francisco","n_obs":356,"base_rate":0.6404,"low_support":false,"hazard":"bacteria"}},{"type":"Feature","geometry":{"type":"Point","coordinates":[-120.69367,35.16669]},"properties":{"station_id":"3609a3dc85f3eff9cc9b955c86a52ced","name":"Sewers","county":"San Luis Obispo","n_obs":2671,"base_rate":0.0693,"low_support":false,"hazard":"bacteria"}},{"type":"Feature","geometry":{"type":"Point","coordinates":[-122.29113,37.56022]},"properties":{"station_id":"ab43c31e21d8db81853e51993d25699a","name":"Aquatic Park","county":"San Mateo","n_obs":2029,"base_rate":0.6185,"low_support":false,"hazard":"bacteria"}},{"type":"Feature","geometry":{"type":"Point","coordinates":[-122.50552,37.59605]},"properties":{"station_id":"2567080c326c3cf23ad2102f535f137d","name":"Pacifica State Beach","county":"San Mateo","n_obs":1008,"base_rate":0.9325,"low_support":false,"hazard":"bacteria"}},{"type":"Feature","geometry":{"type":"Point","coordinates":[-122.40321,37.32098]},"properties":{"station_id":"4b9177e8879ae3b2ec70f5338ae55ebe","name":"San Gregorio State Beach","county":"San Mateo","n_obs":883,"base_rate":0.6557,"low_support":false,"hazard":"bacteria"}},{"type":"Feature","geometry":{"type":"Point","coordinates":[-119.88068,34.40889]},"properties":{"station_id":"c62c7e6882d48f8c97255649f85f75dc","name":"Coal Oil Point","county":"Santa Barbara","n_obs":2181,"base_rate":0.0697,"low_support":false,"hazard":"bacteria"}},{"type":"Feature","geometry":{"type":"Point","coordinates":[-119.78012,34.41457]},"properties":{"station_id":"47841e6265ef6811eafcae26c3a0a41d","name":"Hope Ranch Beach","county":"Santa Barbara","n_obs":3098,"base_rate":0.1856,"low_support":false,"hazard":"bacteria"}},{"type":"Feature","geometry":{"type":"Point","coordinates":[-121.94986,36.97176]},"properties":{"station_id":"2e5dd7ce14bb4974b50debf92dfe2b46","name":"Capitola City Beach","county":"Santa Cruz","n_obs":2149,"base_rate":0.2727,"low_support":false,"hazard":"bacteria"}},{"type":"Feature","geometry":{"type":"Point","coordinates":[-121.96951,36.95719]},"properties":{"station_id":"504bc999c89477eca4654b589b591b9e","name":"Pleasure Point Beach","county":"Santa Cruz","n_obs":466,"base_rate":0.1052,"low_support":false,"hazard":"bacteria"}},{"type":"Feature","geometry":{"type":"Point","coordinates":[-121.91366,36.97151]},"properties":{"station_id":"d968c99365b8b0e0c1da59825e829c4b","name":"Seacliff State Beach","county":"Santa Cruz","n_obs":1822,"base_rate":0.1679,"low_support":false,"hazard":"bacteria"}},{"type":"Feature","geometry":{"type":"Point","coordinates":[-122.27992,37.09617]},"properties":{"station_id":"e7e41159234e8cdbfd264f2688539f30","name":"Waddell Creek Beach","county":"Santa Cruz","n_obs":323,"base_rate":0.0464,"low_support":false,"hazard":"bacteria"}},{"type":"Feature","geometry":{"type":"Point","coordinates":[-119.23308,34.16859]},"properties":{"station_id":"db4806ecb022f589a68381907db5977f","name":"Hollywood Beach","county":"Ventura","n_obs":1193,"base_rate":0.0277,"low_support":false,"hazard":"bacteria"}},{"type":"Feature","geometry":{"type":"Point","coordinates":[-119.29303,34.27566]},"properties":{"station_id":"87cf8204c4775507dba8e8266202cd73","name":"Promenade Park Beach","county":"Ventura","n_obs":1289,"base_rate":0.2126,"low_support":false,"hazard":"bacteria"}},{"type":"Feature","geometry":{"type":"Point","coordinates":[-118.95049,34.04718]},"properties":{"station_id":"1be08b42bc2f59b2e1943d7036388f9b","name":"Staircase Beach","county":"Ventura","n_obs":1190,"base_rate":0.0151,"low_support":false,"hazard":"bacteria"}},{"type":"Feature","geometry":{"type":"Point","coordinates":[-119.01405,34.07035]},"properties":{"station_id":"9e40a30bc2aeee9129baa378ba79622e","name":"Sycamore Cove Beach","county":"Ventura","n_obs":1204,"base_rate":0.0158,"low_support":false,"hazard":"bacteria"}},{"type":"Feature","geometry":{"type":"Point","coordinates":[-122.38657,37.92066]},"properties":{"station_id":"9b97efb48ef674db1a7af5f97390fd39","name":"Keller Beach (Contra Costa Co)","county":"East Bay Parks District","n_obs":1841,"base_rate":0.3601,"low_support":false,"hazard":"bacteria"}},{"type":"Feature","geometry":{"type":"Point","coordinates":[-118.93326,34.04477]},"properties":{"station_id":"5cf195582b6bf9fcfe878799a5af0ad9","name":"Leo Carillo State Beach","county":"Los Angeles","n_obs":2218,"base_rate":0.1519,"low_support":false,"hazard":"bacteria"}},{"type":"Feature","geometry":{"type":"Point","coordinates":[-118.51008,34.01931]},"properties":{"station_id":"0b34bbb99737d67a6b52d9719733696d","name":"Santa Monica State Beach","county":"Los Angeles","n_obs":2235,"base_rate":0.1396,"low_support":false,"hazard":"bacteria"}},{"type":"Feature","geometry":{"type":"Point","coordinates":[-118.3939,33.8441]},"properties":{"station_id":"ec469a4419aa703affe3361a65a83246","name":"Seaside Lagoon","county":"Los Angeles","n_obs":15,"base_rate":0.0,"low_support":true,"hazard":"bacteria"}},{"type":"Feature","geometry":{"type":"Point","coordinates":[-122.53727,37.83026]},"properties":{"station_id":"b620dac5e9d747f5f50017b0be1efaa0","name":"Rodeo Beach","county":"Marin","n_obs":1260,"base_rate":0.0087,"low_support":false,"hazard":"bacteria"}},{"type":"Feature","geometry":{"type":"Point","coordinates":[-123.80896,39.4592]},"properties":{"station_id":"e4df3f2d046681b5f2e6355733cef376","name":"Pudding Creek Beach","county":"Mendocino","n_obs":1860,"base_rate":0.1011,"low_support":false,"hazard":"bacteria"}},{"type":"Feature","geometry":{"type":"Point","coordinates":[-121.78874,36.80803]},"properties":{"station_id":"fe1cd709972f8c84eb2b7b9d85d790c0","name":"Moss Landing State Beach","county":"Monterey","n_obs":348,"base_rate":0.069,"low_support":false,"hazard":"bacteria"}},{"type":"Feature","geometry":{"type":"Point","coordinates":[-117.75284,33.51048]},"properties":{"station_id":"7edc9d844be445bdeeaa86e73d887ad5","name":"Aliso County Beach","county":"Orange","n_obs":1699,"base_rate":0.1754,"low_support":false,"hazard":"bacteria"}},{"type":"Feature","geometry":{"type":"Point","coordinates":[-118.042,33.68818]},"properties":{"station_id":"a05ab01cf596d00b54df05c502aa436d","name":"Bolsa Chica State Beach","county":"Orange","n_obs":3380,"base_rate":0.0515,"low_support":false,"hazard":"bacteria"}},{"type":"Feature","geometry":{"type":"Point","coordinates":[-117.82184,33.56052]},"properties":{"station_id":"07f489263619733c52cac7f996488699","name":"Crystal Cove State Park","county":"Orange","n_obs":384,"base_rate":0.0234,"low_support":false,"hazard":"bacteria"}},{"type":"Feature","geometry":{"type":"Point","coordinates":[-117.68505,33.46171]},"properties":{"station_id":"3699db70ab0b36f9503b0573227ff261","name":"Doheny State Beach","county":"Orange","n_obs":2735,"base_rate":0.1784,"low_support":false,"hazard":"bacteria"}},{"type":"Feature","geometry":{"type":"Point","coordinates":[-118.06581,33.72637]},"properties":{"station_id":"055b3b19a71d22cf188a96a6b8ab2aff","name":"Huntington Harbour","county":"Orange","n_obs":1944,"base_rate":0.07,"low_support":false,"hazard":"bacteria"}},{"type":"Feature","geometry":{"type":"Point","coordinates":[-117.78361,33.54087]},"properties":{"station_id":"d3b2f6440d2273d555d0c2985dd41c4b","name":"Laguna Beach","county":"Orange","n_obs":1344,"base_rate":0.0878,"low_support":false,"hazard":"bacteria"}},{"type":"Feature","geometry":{"type":"Point","coordinates":[-117.888,33.60441]},"properties":{"station_id":"546c9a6e3458bd732c4de7e6985199d8","name":"Newport Bay","county":"Orange","n_obs":2421,"base_rate":0.1611,"low_support":false,"hazard":"bacteria"}},{"type":"Feature","geometry":{"type":"Point","coordinates":[-117.89909,33.61321]},"properties":{"station_id":"44519c981183e4f17a4321e63d743b69","name":"Newport Bay","county":"Orange","n_obs":2277,"base_rate":0.0584,"low_support":false,"hazard":"bacteria"}},{"type":"Feature","geometry":{"type":"Point","coordinates":[-117.94431,33.62222]},"properties":{"station_id":"501a8cb624967e5f24aad151b8c786f8","name":"Newport Beach","county":"Orange","n_obs":3425,"base_rate":0.0493,"low_support":false,"hazard":"bacteria"}},{"type":"Feature","geometry":{"type":"Point","coordinates":[-117.60689,33.40512]},"properties":{"station_id":"736fb387909109ae2023e83d5260d369","name":"San Clemente State Beach","county":"Orange","n_obs":2471,"base_rate":0.0206,"low_support":false,"hazard":"bacteria"}},{"type":"Feature","geometry":{"type":"Point","coordinates":[-117.11075,32.47675]},"properties":{"station_id":"1f8567f0c43b26e7762f8b5537481837","name":"Baja California, MEXICO","county":"San Diego","n_obs":3066,"base_rate":0.5584,"low_support":false,"hazard":"bacteria"}},{"type":"Feature","geometry":{"type":"Point","coordinates":[-117.1332,32.57267]},"properties":{"station_id":"fff8adda3790f44adc8c2c0a888a1d85","name":"Imperial Beach municipal beach, other","county":"San Diego","n_obs":4021,"base_rate":0.4382,"low_support":false,"hazard":"bacteria"}},{"type":"Feature","geometry":{"type":"Point","coordinates":[-117.2727,32.85045]},"properties":{"station_id":"e662dc60d2a3430da15ddc0085f6d679","name":"La Jolla Cove","county":"San Diego","n_obs":2121,"base_rate":0.298,"low_support":false,"hazard":"bacteria"}},{"type":"Feature","geometry":{"type":"Point","coordinates":[-117.2598,32.8548]},"properties":{"station_id":"cc67c486780085fc55d5d9b85c6fc4ff","name":"La Jolla Shores Beach","county":"San Diego","n_obs":3433,"base_rate":0.1398,"low_support":false,"hazard":"bacteria"}},{"type":"Feature","geometry":{"type":"Point","coordinates":[-117.25413,32.86768]},"properties":{"station_id":"0452a8c128b8cf93bef42f1abd6ec0aa","name":"La Jolla Shores Beach","county":"San Diego","n_obs":1622,"base_rate":0.0462,"low_support":false,"hazard":"bacteria"}},{"type":"Feature","geometry":{"type":"Point","coordinates":[-117.28181,32.83377]},"properties":{"station_id":"6d6e1b08da55ff45afdffd6188fe6105","name":"Marine Street Beach","county":"San Diego","n_obs":1259,"base_rate":0.0842,"low_support":false,"hazard":"bacteria"}},{"type":"Feature","geometry":{"type":"Point","coordinates":[-117.21122,32.76953]},"properties":{"station_id":"2c81bd858ebdad86e50fef28738eafa9","name":"Mission Bay","county":"San Diego","n_obs":8,"base_rate":0.625,"low_support":true,"hazard":"bacteria"}},{"type":"Feature","geometry":{"type":"Point","coordinates":[-117.24783,32.76075]},"properties":{"station_id":"69235c9be1dd0ba442cefaf6557d5f73","name":"Mission Bay","county":"San Diego","n_obs":288,"base_rate":0.5694,"low_support":false,"hazard":"bacteria"}},{"type":"Feature","geometry":{"type":"Point","coordinates":[-117.37744,33.18618]},"properties":{"station_id":"f289db950e4d229a20eaea1212b944ff","name":"Oceanside municipal beach, other","county":"San Diego","n_obs":263,"base_rate":0.019,"low_support":false,"hazard":"bacteria"}},{"type":"Feature","geometry":{"type":"Point","coordinates":[-117.25944,32.80139]},"properties":{"station_id":"334cc82391f5524d1760e662302bbc10","name":"Pacific Beach","county":"San Diego","n_obs":32,"base_rate":1.0,"low_support":false,"hazard":"bacteria"}},{"type":"Feature","geometry":{"type":"Point","coordinates":[-117.25667,32.79534]},"properties":{"station_id":"e67793e9e49791441290e97d7b7adf5d","name":"Pacific Beach","county":"San Diego","n_obs":3,"base_rate":0.0,"low_support":true,"hazard":"bacteria"}},{"type":"Feature","geometry":{"type":"Point","coordinates":[-117.27619,32.99657]},"properties":{"station_id":"fd2828868a94f4b3fcb0a36dc2eed21f","name":"Solana Beach City Beaches","county":"San Diego","n_obs":3136,"base_rate":0.0242,"low_support":false,"hazard":"bacteria"}},{"type":"Feature","geometry":{"type":"Point","coordinates":[-117.3255,33.11572]},"properties":{"station_id":"6eb591deedb24b17ecd60ec70b4c85c2","name":"South Carlsbad State Beach","county":"San Diego","n_obs":3277,"base_rate":0.0198,"low_support":false,"hazard":"bacteria"}},{"type":"Feature","geometry":{"type":"Point","coordinates":[-117.27819,32.84749]},"properties":{"station_id":"4bc226c4c77988c7698e33ccfeccc134","name":"South Casa Beach S.D.","county":"San Diego","n_obs":1556,"base_rate":0.3985,"low_support":false,"hazard":"bacteria"}},{"type":"Feature","geometry":{"type":"Point","coordinates":[-117.26196,32.9345]},"properties":{"station_id":"5e0e27b146e1fcbf9fe81914e5eeec01","name":"Torrey Pines State Beach","county":"San Diego","n_obs":4543,"base_rate":0.0885,"low_support":false,"hazard":"bacteria"}},{"type":"Feature","geometry":{"type":"Point","coordinates":[-120.6313,35.10057]},"properties":{"station_id":"4c6e9fad58b16bfc8f7e7890266da6d5","name":"Oceano Dunes State Rec Area","county":"San Luis Obispo","n_obs":2124,"base_rate":0.0541,"low_support":false,"hazard":"bacteria"}},{"type":"Feature","geometry":{"type":"Point","coordinates":[-120.64563,35.14104]},"properties":{"station_id":"60432d0f11e34de555beba2c765e1d4c","name":"Pismo State Beach","county":"San Luis Obispo","n_obs":2139,"base_rate":0.0972,"low_support":false,"hazard":"bacteria"}},{"type":"Feature","geometry":{"type":"Point","coordinates":[-122.44701,37.46785]},"properties":{"station_id":"03f0184b794cac67c571762f8a5168d9","name":"Venice State Beach","county":"San Mateo","n_obs":862,"base_rate":0.9072,"low_support":false,"hazard":"bacteria"}},{"type":"Feature","geometry":{"type":"Point","coordinates":[-119.52,34.39003]},"properties":{"station_id":"30025cf50ebcd440a9a5706cf4397d3e","name":"Carpinteria State","county":"Santa Barbara","n_obs":2309,"base_rate":0.2092,"low_support":false,"hazard":"bacteria"}},{"type":"Feature","geometry":{"type":"Point","coordinates":[-122.02111,36.96245]},"properties":{"station_id":"6312879f743586657c64a4cfa1c215d4","name":"Main Beach","county":"Santa Cruz","n_obs":1085,"base_rate":0.2848,"low_support":false,"hazard":"bacteria"}},{"type":"Feature","geometry":{"type":"Point","coordinates":[-121.97847,36.95616]},"properties":{"station_id":"e39e0a02f171d43c76ac3b51c0296f42","name":"Moran Lake, County Beach","county":"Santa Cruz","n_obs":461,"base_rate":0.1041,"low_support":false,"hazard":"bacteria"}},{"type":"Feature","geometry":{"type":"Point","coordinates":[-122.22931,37.03892]},"properties":{"station_id":"d5dad34c13539b3a8c8aa470862df360","name":"Scott Creek Beach","county":"Santa Cruz","n_obs":323,"base_rate":0.0372,"low_support":false,"hazard":"bacteria"}},{"type":"Feature","geometry":{"type":"Point","coordinates":[-121.99804,36.9616]},"properties":{"station_id":"16834e22778b1dddd3e7e041e7a94a78","name":"Twin Lakes State Beach","county":"Santa Cruz","n_obs":1847,"base_rate":0.1419,"low_support":false,"hazard":"bacteria"}},{"type":"Feature","geometry":{"type":"Point","coordinates":[-123.53129,38.76225]},"properties":{"station_id":"945c9f7cc836efe0782bdbc129e4a8a6","name":"Gualala Regional Park Beach","county":"Sonoma","n_obs":1372,"base_rate":0.0087,"low_support":false,"hazard":"bacteria"}},{"type":"Feature","geometry":{"type":"Point","coordinates":[-119.18924,34.13899]},"properties":{"station_id":"665142a1645ad8228dbb17d26a295ff8","name":"Ormond Beach","county":"Ventura","n_obs":2170,"base_rate":0.0765,"low_support":false,"hazard":"bacteria"}},{"type":"Feature","geometry":{"type":"Point","coordinates":[-122.29153,37.7694]},"properties":{"station_id":"e02521ebd2f321e1d657f8a953323783","name":"Alameda Point","county":"East Bay Parks District","n_obs":591,"base_rate":0.1438,"low_support":false,"hazard":"bacteria"}},{"type":"Feature","geometry":{"type":"Point","coordinates":[-118.17362,33.76345]},"properties":{"station_id":"9d0aa94d8042ec2ce45e305dc64cb74a","name":"Long Beach","county":"Long Beach City","n_obs":4190,"base_rate":0.326,"low_support":false,"hazard":"bacteria"}},{"type":"Feature","geometry":{"type":"Point","coordinates":[-118.15494,33.75956]},"properties":{"station_id":"32073dc067d1052938560c2009d0be2b","name":"Long Beach","county":"Long Beach City","n_obs":4766,"base_rate":0.3214,"low_support":false,"hazard":"bacteria"}},{"type":"Feature","geometry":{"type":"Point","coordinates":[-118.39971,33.85203]},"properties":{"station_id":"19151e944413816d57488264572835ef","name":"Hermosa Beach","county":"Los Angeles","n_obs":7087,"base_rate":0.1374,"low_support":false,"hazard":"bacteria"}},{"type":"Feature","geometry":{"type":"Point","coordinates":[-118.41276,33.88345]},"properties":{"station_id":"ca5643ed41b5d4b2ab3841343497b28f","name":"Manhattan Beach","county":"Los Angeles","n_obs":348,"base_rate":0.0661,"low_support":false,"hazard":"bacteria"}},{"type":"Feature","geometry":{"type":"Point","coordinates":[-118.78616,34.02071]},"properties":{"station_id":"95a381f9c328c559beed6c2a123b736d","name":"Paradise Cove","county":"Los Angeles","n_obs":2347,"base_rate":0.2642,"low_support":false,"hazard":"bacteria"}},{"type":"Feature","geometry":{"type":"Point","coordinates":[-118.82099,34.01317]},"properties":{"station_id":"aa75844bc5154270079b7c3978e20167","name":"Point Dume County Beach","county":"Los Angeles","n_obs":2153,"base_rate":0.0622,"low_support":false,"hazard":"bacteria"}},{"type":"Feature","geometry":{"type":"Point","coordinates":[-118.73389,34.03329]},"properties":{"station_id":"0924c1968e745a30436ea29fc5d7fa4c","name":"Puerco Beach","county":"Los Angeles","n_obs":2228,"base_rate":0.1221,"low_support":false,"hazard":"bacteria"}},{"type":"Feature","geometry":{"type":"Point","coordinates":[-118.46714,33.97826]},"properties":{"station_id":"349d38c1209d413ab0ec7ff20b2aa0ac","name":"Venice City Beach","county":"Los Angeles","n_obs":2230,"base_rate":0.122,"low_support":false,"hazard":"bacteria"}},{"type":"Feature","geometry":{"type":"Point","coordinates":[-118.51955,34.02645]},"properties":{"station_id":"9c2ff4b5813092f23d3727a9d4421a24","name":"Will Rogers State Beach","county":"Los Angeles","n_obs":11178,"base_rate":0.2172,"low_support":false,"hazard":"bacteria"}},{"type":"Feature","geometry":{"type":"Point","coordinates":[-122.48961,37.86401]},"properties":{"station_id":"8b30c554140e255aa291eaef6927bf59","name":"Schoonmaker Beach","county":"Marin","n_obs":1342,"base_rate":0.1915,"low_support":false,"hazard":"bacteria"}},{"type":"Feature","geometry":{"type":"Point","coordinates":[-123.79123,39.27321]},"properties":{"station_id":"c75317707734c3c31608bb2baa16ff09","name":"Van Damme SP","county":"Mendocino","n_obs":1857,"base_rate":0.0603,"low_support":false,"hazard":"bacteria"}},{"type":"Feature","geometry":{"type":"Point","coordinates":[-121.807,36.842]},"properties":{"station_id":"a77a6e31ff1c708b3cede2bd9db5e889","name":"Zmudowski State Beach","county":"Monterey","n_obs":270,"base_rate":0.1259,"low_support":false,"hazard":"bacteria"}},{"type":"Feature","geometry":{"type":"Point","coordinates":[-117.76004,33.51435]},"properties":{"station_id":"c892ceaf1cdb526fecd00dd43a2060ed","name":"Aliso County Beach","county":"Orange","n_obs":3087,"base_rate":0.0188,"low_support":false,"hazard":"bacteria"}},{"type":"Feature","geometry":{"type":"Point","coordinates":[-118.05494,33.70208]},"properties":{"station_id":"c254a5cdb87298bb7b98659713f11acb","name":"Bolsa Chica State Beach","county":"Orange","n_obs":3375,"base_rate":0.0465,"low_support":false,"hazard":"bacteria"}},{"type":"Feature","geometry":{"type":"Point","coordinates":[-117.82179,33.55561]},"properties":{"station_id":"a4ae1ef006485dcf49d7f7840beb6296","name":"Crystal Cove State Park","county":"Orange","n_obs":1480,"base_rate":0.0236,"low_support":false,"hazard":"bacteria"}},{"type":"Feature","geometry":{"type":"Point","coordinates":[-117.6905,33.4595]},"properties":{"station_id":"90cd78a2814014c1a660ad97695d68d1","name":"Dana Point Harbor","county":"Orange","n_obs":1977,"base_rate":0.0248,"low_support":false,"hazard":"bacteria"}},{"type":"Feature","geometry":{"type":"Point","coordinates":[-118.07562,33.72758]},"properties":{"station_id":"2a00c3b5af92fa1fc1baeb5d449645b7","name":"Huntington Harbour","county":"Orange","n_obs":1977,"base_rate":0.1523,"low_support":false,"hazard":"bacteria"}},{"type":"Feature","geometry":{"type":"Point","coordinates":[-117.77274,33.52839]},